# Time (s),Altitude (m),Position East of launch (m),Position North of launch (m),Vertical velocity (m/s),Vertical acceleration (m/s²),Lateral velocity (m/s),Lateral acceleration (m/s²),Angle of attack (°),Roll rate (r/s),Pitch rate (r/s),Yaw rate (r/s)
0,0,0,0,0,0,0,0,86.001,0,0,0
0.009,0,0,0,0,0,0,0,86.001,0,0,0
0.019,6.659e-4,4.812e-5,-4.812e-5,0.215,49.17,0.02,4.083,83.537,0,0,0
0.029,0.006,3.849e-4,-3.849e-4,0.999,107.596,0.082,8.167,74.656,0,0,0
0.039,0.023,0.001,-0.001,2.367,166.122,0.184,11.616,60.848,0,0,0
0.044,0.037,0.002,-0.002,3.271,195.382,0.247,13.662,53.228,0,0,0
0.051,0.067,0.004,-0.004,4.721,191.219,0.348,13.371,43.602,0,0,0
0.063,0.133,0.007,-0.007,6.883,184.824,0.5,12.924,33.747,0,0,0
0.073,0.212,0.011,-0.011,8.748,188.143,0.63,13.156,27.96,0,0,0
0.078,0.258,0.013,-0.013,9.693,189.804,0.696,13.272,25.726,0,0,0
0.086,0.336,0.017,-0.017,11.102,186.056,0.795,13.01,22.918,0,0,0
0.094,0.437,0.022,-0.022,12.666,181.803,0.904,12.713,20.397,0,0,0
0.104,0.572,0.029,-0.029,14.499,184.925,1.032,12.931,18.048,0,0,0
0.109,0.647,0.033,-0.033,15.428,186.488,1.097,13.041,17.017,0,0,0
0.117,0.768,0.039,-0.039,16.815,183.558,1.194,12.836,15.699,0,0,0
0.125,0.918,0.047,-0.047,18.362,180.233,1.302,12.603,14.381,0,0,0
0.135,1.11,0.056,-0.056,20.167,180.93,1.428,12.652,13.121,0,0,0
0.147,1.365,0.069,-0.069,22.344,181.769,1.581,12.711,11.86,0,0,0
0.157,1.598,0.081,-0.081,24.16,181.549,1.708,12.695,10.943,0,0,0
0.167,1.849,0.093,-0.093,25.975,181.328,1.835,12.68,10.084,0,0,0
0.177,2.117,0.107,-0.107,27.787,181.106,1.961,12.664,9.339,0,0,0
0.187,2.404,0.121,-0.121,29.597,180.883,2.088,12.649,8.652,0,0,0
0.194,2.616,0.132,-0.132,30.862,180.727,2.176,12.638,8.251,0,0,0
0.204,2.934,0.147,-0.147,32.673,181.403,2.303,12.685,7.678,0,0,0
0.214,3.269,0.164,-0.164,34.49,182.08,2.43,12.732,7.219,0,0,0
0.224,3.623,0.182,-0.182,36.315,182.758,2.558,12.78,6.818,0,0,0
0.234,3.996,0.2,-0.2,38.146,183.43,2.686,12.915,6.417,0,0,0
0.249,4.589,0.23,-0.23,40.905,184.45,2.88,12.969,5.901,0,4.775e-4,-2.769e-8
0.272,5.556,0.278,-0.278,45.072,185.981,3.173,13.075,5.214,0,0.001,-6.275e-8
0.305,7.183,0.359,-0.359,51.388,188.28,3.617,13.28,4.412,0,0.003,-3.493e-7
0.35,9.672,0.483,-0.483,59.881,191.334,4.218,13.59,3.953,0,0.005,-5.901e-7
0.4,12.908,0.644,-0.644,69.61,197.797,4.92,14.541,2.922,0,0.008,-1.528e-6
0.428,14.935,0.746,-0.746,75.199,201.43,5.335,15.107,2.636,0,0.01,-2.217e-6
0.47,18.272,0.914,-0.914,83.712,203.955,5.985,15.889,2.349,0,0.013,-2.478e-6
0.52,22.714,1.14,-1.14,93.984,206.945,6.809,17.117,1.948,0,0.017,-4.638e-6
0.563,26.947,1.358,-1.358,102.938,209.497,7.573,18.47,1.604,0,0.021,-5.566e-6
0.613,32.357,1.643,-1.643,113.468,211.697,8.541,20.334,1.203,0,0.025,-1.189e-5
0.663,38.296,1.963,-1.964,124.107,213.827,9.616,22.797,0.573,0,0.028,-3.767e-5
0.694,42.246,2.182,-2.183,130.755,215.105,10.351,24.617,0.029,0,0.028,-9.549e-4
0.74,48.559,2.541,-2.543,140.791,216.547,11.554,27.106,0.401,0,-0.028,-7.565e-5
0.79,55.87,2.975,-2.976,151.657,218.07,12.976,29.741,0.802,0,-0.024,-4.181e-5
0.84,63.726,3.46,-3.462,162.598,219.596,14.524,32.111,1.089,0,-0.018,-3.083e-5
0.891,72.131,4.002,-4.005,173.617,221.199,16.174,33.768,1.203,0,-0.009,-2.375e-5
0.941,81.09,4.604,-4.607,184.72,222.948,17.881,34.294,1.031,0,0.001,-2.532e-5
0.988,90.116,5.232,-5.235,195.353,224.749,19.501,33.731,0.745,0,0.01,-2.51e-5
1.038,100.165,5.95,-5.954,206.623,226.064,21.151,32.147,0.401,0,0.017,-3.267e-5
1.088,110.779,6.725,-6.73,217.96,227.404,22.706,30.021,8.697e-4,0,0.018,-0.006
1.138,121.962,7.553,-7.559,229.362,228.689,24.152,27.875,0.286,0,-0.017,6.828e-7
1.188,133.717,8.431,-8.438,240.826,229.853,25.502,26.223,0.516,0,-0.009,7.273e-6
1.238,146.046,9.355,-9.363,252.344,230.825,26.795,25.762,0.516,0,6.366e-4,7.975e-6
1.266,153.202,9.892,-9.901,258.814,231.27,27.521,26.153,0.401,0,0.006,7.039e-6
1.308,164.276,10.725,-10.736,268.548,232.23,28.647,27.571,0.229,0,0.013,1.631e-5
1.358,177.994,11.762,-11.774,280.184,233.187,30.082,29.989,0.01,0,-0.016,-2.238e-5
1.408,192.295,12.853,-12.866,291.863,233.952,31.655,32.725,0.286,0,-0.011,-1.208e-5
1.458,207.181,14,-14.015,303.581,234.768,33.317,33.501,0.286,-5.987e-9,-0.001,-1.389e-5
1.491,217.327,14.79,-14.806,311.337,235.277,34.418,33.075,0.229,-5.449e-9,0.005,-1.923e-5
1.541,233.026,16.021,-16.04,322.957,234.379,36.018,31.481,0.057,-9.492e-9,0.011,-1.693e-5
1.581,246.298,17.07,-17.091,332.439,233.83,37.256,29.627,0.057,-9.63e-9,-0.011,7.086e-6
1.631,263.211,18.411,-18.435,344.062,231.094,38.675,27.179,0.229,-8.413e-9,-0.003,4.445e-6
1.641,266.664,18.685,-18.709,346.371,230.512,38.945,26.875,0.286,-8.558e-9,-6.366e-4,5.488e-6
1.656,271.885,19.1,-19.125,349.825,230.053,39.347,26.829,0.286,-9.207e-9,0.004,6.334e-6
1.679,279.814,19.73,-19.756,354.992,229.218,39.958,27.553,0.172,-8.212e-9,0.009,4.09e-6
1.684,281.77,19.886,-19.912,356.252,229,40.11,27.814,0.172,-8.212e-9,0.011,4.99e-6
1.692,284.717,20.12,-20.147,358.135,227.502,40.341,28.11,0.115,-8.243e-9,0.012,4.962e-6
1.705,289.166,20.475,-20.502,360.936,225.244,40.692,28.569,0.057,-8.217e-9,0.013,-5.758e-6
1.716,293.286,20.803,-20.831,363.487,223.166,41.019,28.941,0.021,-8.206e-9,0.014,-3.67e-5
1.733,299.521,21.3,-21.329,367.285,222.065,41.52,29.772,0.045,-8.196e-9,-0.013,-3.154e-5
1.759,308.994,22.058,-22.089,372.948,220.48,42.296,30.853,0.115,-7.405e-9,-0.011,-1.388e-5
1.784,318.516,22.822,-22.855,378.517,218.973,43.087,31.417,0.172,-6.037e-9,-0.006,-1.309e-5
1.822,333.063,23.995,-24.03,386.77,215.322,44.272,30.704,0.115,-5.069e-9,0.003,-1.359e-5
1.872,352.669,25.585,-25.623,397.424,210.796,45.746,28.412,0.009,-1.034e-8,0.007,7.834e-5
1.922,372.802,27.225,-27.267,407.85,206.264,47.112,26.12,0.115,0,-0.004,1.186e-5
1.938,379.347,27.759,-27.803,411.135,204.789,47.525,25.548,0.115,0,-0.001,8.637e-6
1.962,389.264,28.569,-28.615,416.023,202.905,48.134,25.56,0.115,0,0.004,5.612e-6
1.998,404.356,29.803,-29.852,423.267,199.927,49.075,26.851,0.007,0,-0.007,-1.592e-4
2.048,425.768,31.56,-31.613,433.162,195.885,50.446,27.719,0.115,0,-0.002,-3.514e-5
2.098,447.669,33.366,-33.424,442.86,192.063,51.811,26.605,0.048,-7.133e-9,0.004,-4.954e-5
2.138,465.563,34.846,-34.908,450.494,189.059,52.844,24.98,0.026,-8.469e-9,-0.005,-4.194e-5
2.188,488.323,36.734,-36.8,459.898,187.08,54.053,23.557,0.115,-1.837e-8,6.366e-4,4.639e-6
2.238,511.551,38.663,-38.735,469.195,184.753,55.25,24.713,0.011,-1.792e-8,0.006,-1.381e-4
2.288,535.241,40.636,-40.713,478.374,182.46,56.51,25.31,0.029,-1.978e-8,-0.004,-3.259e-5
2.338,559.386,42.653,-42.737,487.441,180.194,57.782,25.579,0.057,-1.724e-8,-0.001,-4.475e-6
2.388,583.983,44.716,-44.805,496.397,178.087,59.048,24.926,0.033,-1.25e-8,0.002,2.209e-6
2.438,609.025,46.822,-46.918,505.251,176.049,60.261,23.59,0.034,-1.41e-8,-0.002,1.008e-5
2.488,634.506,48.97,-49.072,514.001,173.941,61.413,22.625,0.057,-1.62e-8,0.002,-1.198e-5
2.491,636.049,49.1,-49.202,514.523,173.809,61.481,22.606,0.057,-1.62e-8,0.002,-1.424e-5
2.496,638.366,49.295,-49.399,515.304,173.51,61.583,22.576,0.057,-1.622e-8,0.003,-1.324e-5
2.502,641.848,49.589,-49.693,516.474,173.054,61.735,22.599,0.057,-1.62e-8,0.003,-1.169e-5
2.512,647.087,50.031,-50.137,518.223,172.348,61.965,22.809,0.057,-1.62e-8,0.004,-6.565e-6
2.528,654.977,50.697,-50.805,520.832,171.277,62.314,23.197,0.027,-1.638e-8,0.005,-3.013e-5
2.55,666.886,51.704,-51.815,524.716,169.659,62.85,23.823,0.024,-1.639e-8,-0.005,-8.192e-5
2.585,684.916,53.23,-53.346,530.472,167.292,63.672,24.223,0.057,-1.827e-8,-0.003,-3.764e-5
2.6,693.15,53.928,-54.046,533.055,166.238,64.047,24.233,0.057,-1.808e-8,-0.002,-2.211e-5
2.623,705.575,54.983,-55.104,536.846,160.214,64.603,23.586,0.057,-1.789e-8,3.183e-4,-2.508e-5
2.658,724.374,56.582,-56.709,542.271,151.245,65.399,22.018,0.057,-1.633e-8,0.004,-4.98e-5
2.708,751.671,58.908,-59.043,549.514,138.447,66.426,18.999,0.022,-1.628e-8,-0.005,-2.028e-5
2.758,779.315,61.269,-61.412,556.115,125.576,67.304,16.318,0.057,-1.67e-8,-0.001,3.17e-5
2.808,807.272,63.658,-63.81,562.068,112.508,68.084,15.09,0.052,-5.755e-9,0.003,-5.411e-6
2.858,835.51,66.074,-66.234,567.363,99.313,68.827,14.608,0.024,-7.356e-9,-0.004,-9.369e-5
2.908,863.997,68.516,-68.685,572,86.152,69.536,13.626,0.057,-8.392e-9,-9.549e-4,-1.204e-5
2.919,870.256,69.053,-69.224,572.926,83.288,69.683,13.28,0.057,-8.335e-9,-3.891e-6,-1.421e-5
2.935,879.664,69.861,-70.035,574.285,82.448,69.9,13.11,0.057,-7.953e-9,0.001,-3.686e-5
2.96,893.816,71.077,-71.256,576.298,81.215,70.217,12.645,0.049,-8.193e-9,0.003,-2.739e-5
2.997,915.137,72.912,-73.097,579.261,79.404,70.666,11.654,0.003,-9.037e-9,0.004,-1.592e-4
3.022,929.7,74.166,-74.356,581.239,78.18,70.949,10.913,0.032,-9.234e-9,-0.004,-5.126e-6
3.06,951.636,76.056,-76.254,584.059,71.614,71.332,9.487,0.057,-9.003e-9,-0.001,-1.662e-5
3.11,980.925,78.581,-78.789,587.419,62.784,71.777,8.48,0.057,-1.057e-8,0.002,-1.056e-5
3.138,997.605,80.02,-80.233,589.128,57.737,72.014,8.226,0.034,-9.672e-9,0.004,-3.123e-5
3.181,1022.71,82.186,-82.408,591.438,50.894,72.359,7.962,0.004,-9.497e-9,-0.004,-4.775e-4
3.231,1052.342,84.746,-84.979,593.781,42.84,72.751,7.814,0.057,-1.234e-8,-0.003,-7.495e-5
3.281,1082.081,87.32,-87.563,595.724,34.882,73.127,7.066,0.057,-2.475e-8,0.001,-2.462e-5
3.3,1093.687,88.326,-88.573,596.373,31.828,73.259,6.474,0.057,-2.51e-8,0.003,-1.762e-5
3.329,1111.117,89.837,-90.091,597.197,24.59,73.425,4.866,0.027,-2.427e-8,0.004,-2.589e-5
3.373,1137.3,92.11,-92.373,598.037,13.777,73.582,2.245,0.051,-2.236e-8,-0.004,8.707e-6
3.388,1146.263,92.888,-93.154,598.216,10.075,73.609,1.411,0.057,-2.242e-8,-0.003,2.569e-6
3.41,1159.711,94.055,-94.327,598.408,7.072,73.633,0.777,0.115,-2.27e-8,-9.549e-4,2.114e-5
3.441,1177.979,95.641,-95.92,598.561,2.936,73.65,0.453,0.057,-2.384e-8,0.002,4.779e-5
3.487,1205.387,98.021,-98.31,598.667,1.68,73.686,1.168,0.019,-2.185e-8,0.004,8.736e-5
3.537,1235.322,100.621,-100.923,598.716,0.289,73.769,2.103,0.056,-1.988e-8,-0.003,5.508e-6
3.544,1239.641,100.997,-101.3,598.718,0.093,73.784,2.195,0.057,-1.988e-8,-0.003,3.207e-8
3.555,1246.121,101.56,-101.866,598.714,-0.699,73.808,2.187,0.057,-1.975e-8,-0.002,-4.31e-6
3.571,1255.84,102.406,-102.715,598.693,-1.867,73.843,2.011,0.057,-1.956e-8,-7.958e-4,5.562e-6
3.595,1270.418,103.675,-103.99,598.627,-3.591,73.887,1.57,0.054,-1.916e-8,7.958e-4,2.107e-5
3.609,1278.555,104.383,-104.702,598.572,-4.548,73.906,1.295,0.044,-1.902e-8,0.001,3.727e-5
3.629,1290.759,105.446,-105.77,598.43,-9.364,73.923,0.399,0.027,-1.934e-8,0.002,5.489e-5
3.66,1309.057,107.041,-107.373,598.033,-16.559,73.914,1.047,0.007,-1.908e-8,-0.003,3.183e-4
3.688,1325.809,108.502,-108.841,597.477,-23.138,73.866,2.361,0.037,-1.9e-8,-0.002,7.162e-5
3.73,1350.902,110.691,-111.04,596.446,-25.917,73.75,3.048,0.057,-1.706e-8,3.183e-4,1.123e-4
3.778,1379.48,113.183,-113.545,595.126,-29.16,73.599,3.167,0.038,-2.416e-8,0.003,1.504e-4
3.819,1403.855,115.31,-115.682,593.875,-31.864,73.475,2.77,0.014,-2.309e-8,-0.004,3.183e-4
3.853,1424.027,117.071,-117.452,592.731,-35.395,73.384,2.612,0.057,-2.18e-8,-0.002,9.586e-5
3.897,1450.071,119.346,-119.739,591.001,-43.217,73.246,3.757,0.052,-2.332e-8,6.366e-4,9.946e-5
3.947,1479.564,121.925,-122.331,588.696,-48.992,73.013,5.611,0.024,-2.016e-8,-0.001,1.491e-4
3.981,1499.551,123.674,-124.088,586.963,-52.95,72.806,6.497,0.05,-1.923e-8,2.072e-5,1.262e-4
3.997,1508.935,124.495,-124.914,586.11,-53.619,72.701,6.644,0.054,-1.931e-8,9.549e-4,1.267e-4
4.021,1522.987,125.724,-126.149,584.826,-53.43,72.543,6.489,0.044,-1.838e-8,0.002,1.577e-4
4.057,1544.006,127.563,-127.998,582.907,-53.183,72.317,5.996,0.01,-1.787e-8,0.003,6.366e-4
4.107,1573.085,130.108,-130.557,580.256,-52.864,72.041,5.154,0.049,-1.459e-8,-0.002,1.324e-4
4.157,1602.032,132.643,-133.106,577.623,-52.425,71.785,5.282,0.037,-5.395e-9,6.366e-4,1.036e-4
4.207,1630.848,135.169,-135.646,575.016,-51.881,71.491,6.28,0.04,-5.989e-9,-3.183e-4,-2.26e-5
4.257,1659.534,137.684,-138.175,572.431,-51.515,71.186,5.9,0.016,0,0.001,-1.15e-4
4.307,1688.091,140.189,-140.694,569.864,-51.152,70.899,5.563,0.006,0,-0.002,-3.183e-4
4.357,1716.52,142.684,-143.203,567.315,-50.807,70.633,5.151,0.034,0,-4.775e-4,-8.279e-5
4.407,1744.823,145.169,-145.703,564.784,-50.414,70.378,5.124,0.031,0,0.002,-4.168e-5
4.457,1772.999,147.646,-148.194,562.275,-49.974,70.112,5.483,0.001,0,-0.002,-1.592e-4
4.507,1801.051,150.112,-150.675,559.786,-49.561,69.835,5.669,0.021,0,-0.002,5.165e-5
4.557,1828.978,152.569,-153.146,557.32,-49.122,69.536,6.142,0.057,-5.26e-9,6.366e-4,3.61e-5
4.607,1856.783,155.014,-155.607,554.872,-48.802,69.238,5.735,0.033,0,0.004,1.449e-5
4.657,1884.466,157.45,-158.057,552.439,-48.511,68.965,5.165,0.011,0,-0.004,-1.326e-4
4.707,1912.027,159.876,-160.499,550.021,-48.217,68.719,4.647,0.05,0,-0.002,-4.517e-5
4.757,1939.468,162.294,-162.932,547.617,-47.917,68.505,4.155,0.057,-6.04e-9,0.002,-3.575e-5
4.807,1966.789,164.705,-165.358,545.233,-47.44,68.277,5.009,0.012,-7.891e-9,0.005,2.293e-5
4.857,1993.992,167.106,-167.775,542.873,-46.966,68.004,5.89,0.057,-7.815e-9,-0.003,1.79e-5
4.907,2021.077,169.497,-170.181,540.536,-46.545,67.691,6.409,0.115,-8.254e-9,0.002,-2.028e-5
4.957,2048.045,171.877,-172.577,538.214,-46.323,67.392,5.433,0.033,0,0.007,-3.619e-5
5.007,2074.898,174.248,-174.963,535.902,-46.152,67.154,4.141,0.057,0,-0.005,-3.532e-5
5.057,2101.636,176.61,-177.342,533.601,-45.865,66.963,3.74,0.115,-7.458e-9,3.183e-4,-1.67e-5
5.107,2128.259,178.966,-179.714,531.319,-45.409,66.756,4.58,0.03,-5.65e-9,0.004,-6.282e-5
5.157,2154.768,181.314,-182.078,529.059,-44.993,66.514,5.121,0.022,-6.056e-9,-0.004,3.856e-5
5.207,2181.165,183.653,-184.433,526.82,-44.588,66.243,5.653,0.057,0,-0.002,1.481e-5
5.257,2207.45,185.982,-186.778,524.599,-44.266,65.955,5.644,0.057,-5.539e-9,0.003,4.345e-5
5.307,2233.625,188.301,-189.113,522.39,-44.102,65.702,4.47,0.023,-8.89e-9,-0.005,-1.792e-5
5.357,2259.689,190.612,-191.441,520.19,-43.896,65.503,3.659,0.115,-7.619e-9,-0.001,-2.375e-5
5.407,2285.644,192.916,-193.762,518.003,-43.535,65.314,3.998,0.057,-6.396e-9,0.004,-1.988e-5
5.457,2311.49,195.213,-196.076,515.837,-43.107,65.094,4.849,0.022,0,-0.005,1.49e-6
5.507,2337.228,197.501,-198.381,513.693,-42.695,64.829,5.658,0.115,0,-7.958e-4,-1.969e-5
5.557,2362.86,199.78,-200.676,511.566,-42.412,64.544,5.545,0.115,5.107e-9,0.005,-3.992e-6
5.607,2388.385,202.049,-202.962,509.449,-42.264,64.292,4.448,0.007,5.559e-9,-0.008,3.183e-4
5.657,2413.805,204.309,-205.24,507.339,-42.12,64.098,3.386,0.115,1.165e-8,-0.004,3.049e-5
5.707,2439.119,206.564,-207.512,505.238,-41.877,63.945,3.005,0.115,3.532e-8,0.003,9.586e-6
5.757,2464.329,208.813,-209.779,503.155,-41.422,63.77,4.16,0.022,4.598e-8,0.008,1.592e-4
5.807,2489.435,211.055,-212.038,501.097,-40.931,63.519,5.684,0.115,4.203e-8,-0.005,4.574e-5
5.857,2514.439,213.287,-214.288,499.058,-40.664,63.233,5.548,0.115,4.678e-8,0.003,1.583e-5
5.907,2539.341,215.509,-216.527,497.028,-40.553,62.985,4.277,5.613e-4,4.894e-8,0.006,0.001
5.957,2564.142,217.724,-218.76,495.003,-40.425,62.803,3.206,0.115,5.295e-8,-0.003,-3.608e-5
6.007,2588.841,219.932,-220.986,492.989,-40.118,62.638,3.461,0.057,4.565e-8,0.002,-2.69e-5
6.057,2613.441,222.135,-223.207,490.991,-39.781,62.457,3.906,0.023,4.6e-8,0.005,1.592e-4
6.107,2637.941,224.33,-225.42,489.012,-39.373,62.234,4.951,0.057,4.227e-8,-0.004,5.534e-5
6.157,2662.342,226.517,-227.625,487.052,-39.064,61.973,5.308,0.115,5.149e-8,0.003,2.776e-5
6.207,2686.646,228.694,-229.821,485.103,-38.921,61.726,4.443,0.033,4.455e-8,0.008,1.592e-4
6.257,2710.853,230.864,-232.008,483.159,-38.828,61.534,3.299,0.057,4.588e-8,-0.006,9.767e-5
6.307,2734.962,233.027,-234.191,481.222,-38.652,61.386,2.771,0.115,4.94e-8,9.25e-5,6.494e-5
6.357,2758.975,235.186,-236.368,479.296,-38.33,61.242,3.238,0.057,4.759e-8,0.007,1.274e-4
6.407,2782.892,237.338,-238.539,477.392,-37.863,61.036,4.842,0.057,5.298e-8,-0.006,9.409e-5
6.457,2806.715,239.483,-240.702,475.506,-37.603,60.789,4.925,0.115,5.93e-8,-2.707e-5,5.419e-5
6.507,2830.443,241.618,-242.856,473.63,-37.42,60.55,4.505,0.057,6.248e-8,0.005,4.191e-5
6.557,2854.078,243.746,-245.003,471.762,-37.302,60.346,3.65,0.021,6.33e-8,-0.006,1.592e-4
6.607,2877.619,245.867,-247.143,469.901,-37.143,60.178,3.131,0.057,6.521e-8,-0.003,4.8e-5
6.657,2901.068,247.982,-249.277,468.049,-36.924,60.028,3.019,0.057,6.347e-8,0.002,5.948e-5
6.707,2924.424,250.092,-251.406,466.211,-36.593,59.864,3.639,0.015,6.045e-8,0.005,3.183e-4
6.757,2947.689,252.195,-253.529,464.39,-36.243,59.661,4.438,0.057,6.522e-8,-0.004,8.652e-5
6.807,2970.864,254.291,-255.644,462.585,-35.97,59.428,4.721,0.115,6.807e-8,0.002,7.846e-5
6.857,2993.948,256.378,-257.75,460.791,-35.832,59.205,4.048,0.032,6.587e-8,0.007,1.592e-4
6.907,3016.943,258.458,-259.85,459.001,-35.766,59.034,2.888,0.057,6.79e-8,-0.005,7.85e-5
6.957,3039.848,260.533,-261.945,457.216,-35.583,58.902,2.578,0.115,6.807e-8,0.001,6.788e-5
7.007,3062.665,262.604,-264.035,455.445,-35.234,58.755,3.431,0.019,6.567e-8,0.006,4.775e-4
7.057,3085.393,264.667,-266.118,453.694,-34.849,58.551,4.607,0.115,6.492e-8,-0.003,1.042e-4
7.107,3108.034,266.723,-268.194,451.957,-34.636,58.318,4.565,0.115,6.938e-8,0.004,8.773e-5
7.157,3130.589,268.771,-270.262,450.228,-34.539,58.106,3.717,0.014,7.802e-8,0.008,6.366e-4
7.207,3153.057,270.813,-272.324,448.501,-34.53,57.96,2.272,0.115,7.838e-8,-0.004,5.212e-5
7.257,3175.439,272.85,-274.381,446.778,-34.327,57.857,2.168,0.115,7.423e-8,0.006,7.803e-5
7.307,3197.735,274.883,-276.435,445.073,-33.896,57.712,3.691,0.022,8.056e-8,-0.009,4.775e-4
7.357,3219.947,276.91,-278.481,443.388,-33.532,57.494,4.843,0.115,8.257e-8,-0.003,9.035e-5
7.407,3242.074,278.928,-280.52,441.716,-33.383,57.255,4.437,0.115,8.566e-8,0.006,8.259e-5
7.457,3264.118,280.939,-282.551,440.047,-33.387,57.071,2.956,0.041,9.061e-8,-0.008,1.296e-4
7.507,3286.079,282.944,-284.577,438.379,-33.3,56.945,2.195,0.115,9.966e-8,-0.002,1.833e-5
7.557,3307.956,284.945,-286.598,436.719,-33.071,56.838,2.387,0.115,1.018e-7,0.006,-1.18e-5
7.607,3329.751,286.942,-288.616,435.075,-32.668,56.68,3.862,0.057,9.686e-8,-0.007,1.733e-5
7.657,3351.464,288.931,-290.626,433.45,-32.381,56.466,4.556,0.115,9.175e-8,-7.184e-5,6.624e-6
7.707,3373.096,290.913,-292.629,431.835,-32.251,56.243,4.128,0.115,9.944e-8,0.008,1.943e-5
7.757,3394.648,292.888,-294.625,430.222,-32.272,56.073,2.662,0.057,1.002e-7,-0.009,-1.95e-5
7.807,3416.118,294.858,-296.616,428.608,-32.229,55.97,1.697,0.172,1.02e-7,-0.001,-2.383e-5
7.857,3437.509,296.825,-298.604,427.003,-31.95,55.876,2.325,0.115,1.026e-7,0.008,4.919e-6
7.907,3458.819,298.787,-300.587,425.417,-31.511,55.713,4.146,0.115,1.025e-7,-0.007,3.189e-5
7.957,3480.051,300.742,-302.563,423.849,-31.234,55.479,4.871,0.172,1.121e-7,0.003,3.154e-5
8.007,3501.204,302.689,-304.531,422.288,-31.227,55.261,3.654,0.053,1.108e-7,0.011,7.331e-5
8.057,3522.279,304.629,-306.493,420.725,-31.307,55.124,1.922,0.115,1.051e-7,-0.009,4.55e-6
8.107,3543.276,306.566,-308.451,419.16,-31.212,55.05,1.396,0.172,1.098e-7,0.003,2.166e-5
8.157,3564.196,308.5,-310.407,417.609,-30.822,54.946,2.87,0.023,1.222e-7,0.01,3.183e-4
8.207,3585.038,310.429,-312.357,416.077,-30.459,54.768,4.215,0.115,1.292e-7,-0.006,5.886e-5
8.257,3605.804,312.35,-314.3,414.562,-30.205,54.531,4.88,0.172,1.301e-7,0.005,6.853e-5
8.307,3626.494,314.263,-316.235,413.051,-30.277,54.325,3.193,0.017,1.256e-7,0.013,4.775e-4
8.357,3647.109,316.171,-318.165,411.533,-30.393,54.217,1.317,0.172,1.309e-7,-0.007,3.164e-5
8.407,3667.647,318.076,-320.092,410.016,-30.228,54.161,1.322,0.172,1.307e-7,0.006,1.521e-5
8.457,3688.111,319.978,-322.016,408.516,-29.79,54.05,3.173,0.022,1.365e-7,-0.012,1.592e-4
8.507,3708.499,321.874,-323.934,407.035,-29.457,53.854,4.407,0.172,1.407e-7,-0.005,3.987e-5
8.557,3728.814,323.763,-325.846,405.565,-29.367,53.642,3.921,0.115,1.318e-7,0.005,5.427e-5
8.607,3749.056,325.646,-327.75,404.098,-29.355,53.47,2.928,0.005,1.271e-7,0.008,7.958e-4
8.657,3769.224,327.522,-329.649,402.631,-29.314,53.342,2.2,0.057,1.285e-7,-0.006,1.184e-5
8.707,3789.319,329.395,-331.545,401.166,-29.241,53.249,1.666,0.115,1.249e-7,0.001,2.916e-6
8.757,3809.341,331.265,-333.437,399.709,-29.005,53.158,2.197,0.057,1.197e-7,0.009,-2.276e-5
8.807,3829.29,333.131,-335.325,398.268,-28.651,53.011,3.606,0.115,1.174e-7,-0.008,1.741e-5
8.857,3849.168,334.991,-337.207,396.842,-28.444,52.816,4.019,0.115,1.233e-7,3.183e-4,8.497e-6
8.907,3868.974,336.843,-339.082,395.421,-28.383,52.626,3.419,0.057,1.142e-7,0.008,-1.684e-5
8.957,3888.71,338.69,-340.952,394.001,-28.425,52.488,2.12,0.057,1.138e-7,-0.008,-5.547e-5
9.007,3908.375,340.532,-342.817,392.581,-28.364,52.401,1.548,0.115,1.15e-7,-6.366e-4,-4.485e-5
9.057,3927.968,342.372,-344.68,391.168,-28.129,52.313,2.132,0.057,1.211e-7,0.006,-7.577e-5
9.107,3947.492,344.208,-346.539,389.77,-27.803,52.175,3.377,0.057,1.218e-7,-0.006,-1.282e-5
9.157,3966.945,346.038,-348.391,388.386,-27.576,51.984,3.971,0.172,1.145e-7,0.002,-5.443e-6
9.207,3986.33,347.861,-350.238,387.007,-27.593,51.813,2.843,0.022,1.133e-7,0.008,-1.159e-4
9.257,4005.646,349.679,-352.079,385.628,-27.576,51.692,2.005,0.057,1.133e-7,-0.006,-7.227e-5
9.307,4024.893,351.493,-353.917,384.249,-27.532,51.614,1.333,0.172,1.062e-7,0.002,-4.015e-5
9.357,4044.071,353.305,-355.752,382.879,-27.271,51.532,2.115,0.057,1.102e-7,0.009,-9.132e-5
9.407,4063.181,355.113,-357.583,381.524,-26.939,51.39,3.436,0.115,1.1e-7,-0.007,-1.899e-5
9.457,4082.224,356.915,-359.408,380.181,-26.778,51.211,3.583,0.115,1.119e-7,4.775e-4,-1.203e-5
9.507,4101.199,358.711,-361.228,378.845,-26.708,51.041,3.109,0.057,1.08e-7,0.007,-5.12e-5
9.557,4120.108,360.501,-363.041,377.509,-26.714,50.909,2.135,0.048,1.061e-7,-0.008,-1.334e-4
9.607,4138.95,362.287,-364.852,376.173,-26.7,50.828,1.316,0.172,1.098e-7,-0.001,-5.098e-5
9.657,4157.726,364.071,-366.659,374.844,-26.476,50.75,1.906,0.057,1.123e-7,0.005,-6.977e-5
9.707,4176.435,365.852,-368.463,373.526,-26.23,50.637,2.649,0.025,1.126e-7,-0.007,-1.592e-4
9.757,4195.079,367.628,-370.263,372.221,-25.991,50.484,3.389,0.115,1.109e-7,-0.003,-3.355e-5
9.807,4213.657,369.397,-372.056,370.925,-25.841,50.305,3.536,0.172,1.026e-7,0.006,-2.449e-5
9.857,4232.171,371.161,-373.844,369.633,-25.86,50.154,2.509,0.012,1.055e-7,0.01,-4.775e-4
9.907,4250.62,372.92,-375.627,368.34,-25.847,50.047,1.769,0.115,1.027e-7,-0.008,-8.631e-5
9.957,4269.005,374.676,-377.407,367.049,-25.786,49.974,1.337,0.172,9.866e-8,-9.549e-4,-5.075e-5
10.007,4287.325,376.43,-379.185,365.765,-25.549,49.89,2.073,0.046,9.815e-8,0.004,-6.556e-5
10.057,4305.582,378.179,-380.959,364.493,-25.336,49.773,2.627,0.033,9.729e-8,-0.005,-4.749e-5
10.107,4323.775,379.924,-382.728,363.231,-25.152,49.63,3.006,0.115,9.893e-8,-0.001,3.051e-7
10.157,4341.905,381.664,-384.492,361.976,-25.067,49.484,2.711,0.051,1.022e-7,0.003,-8.252e-6
10.207,4359.973,383.399,-386.252,360.723,-25.046,49.369,1.989,0.046,1.028e-7,-0.003,-3.086e-5
10.257,4377.977,385.131,-388.008,359.474,-24.929,49.27,1.951,0.05,1.017e-7,-3.183e-4,-3.941e-5
10.307,4395.92,386.859,-389.76,358.23,-24.807,49.177,1.929,0.05,1.023e-7,0.003,-5.321e-5
10.357,4413.801,388.583,-391.509,356.996,-24.558,49.058,2.712,0.057,1.038e-7,-0.002,1.631e-5
10.407,4431.62,390.303,-393.254,355.771,-24.427,48.925,2.673,0.057,1.052e-7,7.958e-4,-1.986e-6
10.457,4449.378,392.018,-394.993,354.555,-24.251,48.777,3.007,0.115,1.046e-7,0.006,-2.839e-5
10.507,4467.075,393.728,-396.728,353.342,-24.275,48.654,1.961,0.04,1.049e-7,-0.007,-1.312e-4
10.557,4484.712,395.434,-398.459,352.129,-24.226,48.57,1.449,0.115,1.037e-7,-0.004,-5.338e-5
10.607,4502.288,397.137,-400.187,350.92,-24.117,48.505,1.303,0.115,1.056e-7,0.003,-5.682e-5
10.657,4519.804,398.838,-401.913,349.72,-23.855,48.421,2.15,0.006,1.021e-7,0.007,-6.366e-4
10.707,4537.261,400.536,-403.635,348.535,-23.592,48.288,3.05,0.115,1.019e-7,-0.004,3.511e-6
10.757,4554.658,402.227,-405.352,347.359,-23.447,48.13,3.177,0.172,9.866e-8,0.004,-1.187e-6
10.807,4571.997,403.914,-407.063,346.188,-23.405,47.98,2.633,0.057,9.648e-8,0.01,-6.747e-5
10.857,4589.277,405.596,-408.77,345.015,-23.521,47.891,1.051,0.172,9.467e-8,-0.007,-4.759e-5
10.907,4606.498,407.275,-410.475,343.84,-23.434,47.849,0.82,0.229,9.49e-8,0.002,-2.383e-5
10.957,4623.661,408.954,-412.179,342.675,-23.157,47.787,1.784,0.05,9.384e-8,0.008,-2.013e-5
11.007,4640.766,410.628,-413.879,341.526,-22.835,47.662,3.115,0.172,9.557e-8,-0.005,4.455e-5
11.057,4657.814,412.298,-415.574,340.388,-22.689,47.498,3.274,0.172,9.891e-8,0.003,4.74e-5
11.107,4674.805,413.962,-417.263,339.254,-22.688,47.353,2.432,0.057,9.774e-8,0.009,1.125e-4
11.157,4691.739,415.621,-418.948,338.119,-22.724,47.258,1.384,0.115,9.95e-8,-0.008,2.451e-5
11.207,4708.617,417.278,-420.631,336.983,-22.679,47.205,0.881,0.172,9.365e-8,-0.001,-4.703e-7
11.257,4725.437,418.933,-422.312,335.853,-22.49,47.154,1.267,0.115,9.28e-8,0.006,5.464e-6
11.307,4742.202,420.586,-423.99,334.735,-22.223,47.07,2.152,0.027,9.508e-8,-0.008,1.257e-4
11.357,4758.911,422.235,-425.665,333.631,-21.968,46.939,3.022,0.172,9.244e-8,-0.004,4.835e-5
11.407,4775.565,423.879,-427.335,332.537,-21.825,46.779,3.176,0.229,8.774e-8,0.005,4.749e-5
11.457,4792.165,425.518,-428.999,331.445,-21.864,46.645,2.11,0.029,8.44e-8,0.01,1.592e-4
11.507,4808.71,427.152,-430.659,330.351,-21.905,46.566,1.101,0.172,8.547e-8,-0.008,1.749e-5
11.557,4825.2,428.785,-432.318,329.256,-21.86,46.526,0.645,0.229,8.779e-8,3.183e-4,7.813e-6
11.607,4841.635,430.416,-433.975,328.168,-21.639,46.482,1.254,0.115,9.011e-8,0.008,4.743e-5
11.657,4858.017,432.045,-435.63,327.093,-21.349,46.391,2.341,0.057,9.121e-8,-0.008,1.151e-4
11.707,4874.345,433.67,-437.281,326.031,-21.153,46.259,2.854,0.172,9.003e-8,-0.003,5.976e-5
11.757,4890.62,435.289,-438.927,324.976,-21.064,46.118,2.667,0.172,9.594e-8,0.004,5.925e-5
11.807,4906.843,436.905,-440.568,323.923,-21.054,46.001,1.989,0.03,9.934e-8,0.008,1.592e-4
11.857,4923.013,438.516,-442.206,322.871,-21.054,45.92,1.279,0.115,9.909e-8,-0.007,2.814e-5
11.907,4939.13,440.126,-443.842,321.819,-21.01,45.868,0.875,0.172,1.007e-7,-0.001,1.329e-5
11.957,4955.194,441.733,-445.476,320.771,-20.884,45.824,0.986,0.172,1.051e-7,0.005,2.352e-5
12.007,4971.207,443.339,-447.108,319.731,-20.695,45.764,1.483,0.051,1.036e-7,0.009,1.005e-4
12.057,4987.168,444.942,-448.738,318.703,-20.439,45.664,2.481,0.115,1.029e-7,-0.008,6.474e-5
12.107,5003.077,446.541,-450.363,317.686,-20.267,45.524,2.966,0.229,1.06e-7,6.086e-6,4.961e-5
12.157,5018.936,448.134,-451.983,316.674,-20.24,45.387,2.469,0.172,1.037e-7,0.007,7.482e-5
12.207,5034.745,449.724,-453.599,315.661,-20.252,45.281,1.766,0.013,1.044e-7,0.01,6.366e-4
12.257,5050.503,451.31,-455.212,314.649,-20.224,45.201,1.383,0.057,1.036e-7,-0.01,6.365e-5
12.307,5066.21,452.893,-456.823,313.638,-20.23,45.15,0.765,0.172,1.028e-7,-0.005,4.412e-6
12.357,5081.866,454.476,-458.432,312.628,-20.137,45.114,0.757,0.172,1.081e-7,0.002,-9.543e-7
12.407,5097.473,456.056,-460.039,311.626,-19.956,45.065,1.273,0.057,1.075e-7,0.007,4.375e-5
12.457,5113.029,457.635,-461.645,310.633,-19.745,44.983,1.996,0.057,1.077e-7,-0.007,9.164e-5
12.507,5128.536,459.21,-463.247,309.65,-19.583,44.871,2.442,0.172,1.102e-7,-0.003,4.531e-5
12.557,5143.994,460.78,-464.844,308.674,-19.464,44.741,2.637,0.229,1.117e-7,0.004,3.592e-5
12.607,5159.404,462.346,-466.437,307.701,-19.488,44.626,1.894,0.057,1.083e-7,0.009,6.737e-5
12.657,5174.764,463.909,-468.027,306.726,-19.514,44.551,1.187,0.115,1.083e-7,-0.008,1.293e-5
12.707,5190.076,465.47,-469.615,305.751,-19.46,44.497,1.008,0.115,1.099e-7,-0.004,-1.857e-7
12.757,5205.339,467.028,-471.201,304.78,-19.358,44.445,1.119,0.115,1.1e-7,-1.592e-4,1.105e-5
12.807,5220.554,468.585,-472.785,303.816,-19.241,44.383,1.334,0.056,1.094e-7,0.002,2.279e-5
12.857,5235.721,470.139,-474.366,302.856,-19.135,44.315,1.487,0.019,1.096e-7,0.004,1.119e-4
12.907,5250.84,471.691,-475.945,301.903,-18.978,44.226,1.988,0.115,1.096e-7,-0.002,5.411e-5
12.957,5265.912,473.239,-477.521,300.956,-18.914,44.128,1.894,0.057,1.102e-7,3.183e-4,5.508e-5
13.007,5280.936,474.783,-479.093,300.012,-18.858,44.036,1.776,0.054,1.092e-7,0.003,7.601e-5
13.057,5295.913,476.325,-480.662,299.07,-18.832,43.955,1.468,0.013,1.093e-7,-0.003,1.592e-4
13.107,5310.843,477.864,-482.229,298.129,-18.775,43.885,1.369,0.034,1.09e-7,-0.002,5.107e-5
13.157,5325.726,479.4,-483.793,297.193,-18.707,43.816,1.341,0.04,1.087e-7,-0.001,2.209e-5
13.207,5340.562,480.934,-485.355,296.258,-18.673,43.757,1.088,0.115,1.084e-7,9.549e-4,1.88e-5
13.257,5355.352,482.466,-486.914,295.327,-18.551,43.695,1.389,0.023,1.084e-7,0.003,7.913e-5
13.307,5370.095,483.996,-488.472,294.402,-18.445,43.62,1.596,0.03,1.083e-7,-0.003,9.218e-5
13.357,5384.792,485.523,-490.027,293.482,-18.358,43.539,1.688,0.056,1.082e-7,-0.001,5.274e-5
13.407,5399.443,487.047,-491.578,292.567,-18.252,43.447,1.922,0.115,1.098e-7,0.001,4.816e-5
13.457,5414.049,488.567,-493.127,291.656,-18.2,43.353,1.818,0.115,1.103e-7,0.004,5.755e-5
13.507,5428.609,490.084,-494.672,290.746,-18.193,43.271,1.437,5.496e-4,1.095e-7,-0.001,0.005
13.557,5443.123,491.599,-496.214,289.837,-18.174,43.207,1.15,0.057,1.095e-7,-0.005,1.402e-5
13.607,5457.592,493.111,-497.755,288.929,-18.14,43.155,0.952,0.115,1.092e-7,-0.002,6.005e-7
13.657,5472.016,494.622,-499.294,288.023,-18.082,43.111,0.889,0.115,1.087e-7,0.002,-1.02e-5
13.707,5486.395,496.131,-500.831,287.122,-17.949,43.057,1.284,0.031,1.082e-7,0.004,3.363e-5
13.757,5500.729,497.638,-502.366,286.229,-17.783,42.979,1.758,0.115,1.082e-7,-0.003,4.194e-5
13.807,5515.018,499.142,-503.899,285.342,-17.698,42.894,1.63,0.057,1.076e-7,-7.958e-4,3.514e-5
13.857,5529.263,500.643,-505.428,284.459,-17.612,42.815,1.544,0.051,1.075e-7,6.366e-4,3.772e-5
13.907,5543.464,502.141,-506.954,283.581,-17.523,42.738,1.513,0.046,1.077e-7,0.002,4.534e-5
13.957,5557.621,503.636,-508.478,282.706,-17.471,42.669,1.251,0.019,1.079e-7,-0.002,3.758e-5
14.007,5571.735,505.129,-510,281.834,-17.398,42.61,1.141,0.045,1.082e-7,-0.002,2.593e-6
14.057,5585.805,506.62,-511.52,280.967,-17.315,42.554,1.105,0.052,1.077e-7,-3.183e-4,-1.475e-6
14.107,5599.831,508.11,-513.037,280.103,-17.217,42.497,1.167,0.032,1.074e-7,7.958e-4,1.04e-5
14.157,5613.815,509.597,-514.553,279.245,-17.099,42.435,1.37,0.027,1.072e-7,-9.549e-4,4.458e-5
14.207,5627.756,511.081,-516.066,278.394,-16.965,42.357,1.708,0.115,1.065e-7,9.549e-4,2.761e-5
14.257,5641.654,512.563,-517.577,277.548,-16.881,42.269,1.734,0.115,1.051e-7,0.004,3.78e-5
14.307,5655.511,514.041,-519.084,276.704,-16.895,42.197,1.148,0.027,1.056e-7,-0.006,-9.877e-6
14.357,5669.325,515.518,-520.589,275.86,-16.853,42.146,0.938,0.057,1.058e-7,-0.004,-1.353e-5
14.407,5683.097,516.993,-522.093,275.018,-16.798,42.102,0.813,0.115,1.052e-7,-0.002,-1.639e-5
14.457,5696.827,518.466,-523.595,274.18,-16.727,42.063,0.782,0.115,1.057e-7,0.001,-2.015e-5
14.507,5710.515,519.938,-525.096,273.346,-16.636,42.022,0.862,0.115,1.06e-7,0.004,-8.558e-6
14.557,5724.161,521.408,-526.596,272.517,-16.529,41.976,1.035,0.042,1.067e-7,0.006,3.611e-5
14.607,5737.767,522.876,-528.093,271.694,-16.38,41.912,1.501,0.115,1.068e-7,-0.005,3.341e-5
14.657,5751.331,524.342,-529.588,270.878,-16.255,41.828,1.844,0.229,1.078e-7,-0.002,1.961e-5
14.707,5764.855,525.805,-531.08,270.068,-16.173,41.732,1.941,0.229,1.095e-7,0.004,2.437e-5
14.757,5778.338,527.264,-532.568,269.26,-16.171,41.644,1.532,0.115,1.096e-7,0.008,2.193e-5
14.807,5791.781,528.72,-534.054,268.45,-16.204,41.582,0.944,0.057,1.092e-7,-0.008,-3.907e-5
14.857,5805.183,530.175,-535.538,267.64,-16.202,41.544,0.592,0.172,1.074e-7,-0.006,-2.118e-5
14.907,5818.544,531.628,-537.021,266.83,-16.198,41.524,0.243,0.286,1.077e-7,-0.001,-2.667e-5
14.957,5831.866,533.082,-538.504,266.021,-16.144,41.516,0.164,0.286,1.076e-7,0.005,-3.38e-5
15.007,5845.147,534.534,-539.986,265.217,-16.004,41.499,0.586,0.172,1.076e-7,0.01,-2.696e-5
15.057,5858.388,535.986,-541.467,264.422,-15.801,41.448,1.427,0.115,1.078e-7,-0.011,-1.727e-6
15.107,5871.589,537.435,-542.946,263.636,-15.643,41.36,2.035,0.286,1.069e-7,-0.006,1.307e-5
15.157,5884.751,538.88,-544.421,262.856,-15.573,41.256,2.102,0.344,1.071e-7,7.958e-4,1.956e-5
15.207,5897.875,540.322,-545.892,262.078,-15.538,41.153,1.957,0.286,1.068e-7,0.007,1.915e-5
15.257,5910.959,541.761,-547.361,261.301,-15.552,41.065,1.533,0.172,1.068e-7,0.012,3.328e-5
15.307,5924.005,543.196,-548.826,260.523,-15.598,41.002,0.943,0.034,1.072e-7,-0.014,6.35e-5
15.357,5937.011,544.63,-550.29,259.741,-15.669,40.974,0.239,0.286,1.066e-7,-0.01,-1.418e-5
15.407,5949.979,546.064,-551.753,258.958,-15.628,40.964,0.2,0.286,1.061e-7,-0.005,-7.179e-6
15.457,5962.907,547.497,-553.216,258.178,-15.548,40.951,0.357,0.229,1.054e-7,3.183e-4,-4.429e-6
15.507,5975.797,548.929,-554.679,257.404,-15.439,40.927,0.662,0.115,1.051e-7,0.004,8.987e-6
15.557,5988.648,550.36,-556.14,256.635,-15.318,40.883,1.04,0.004,1.053e-7,-0.005,6.366e-4
15.607,6001.46,551.79,-557.599,255.871,-15.248,40.83,1.118,0.037,1.052e-7,-0.005,1.089e-4
15.657,6014.235,553.217,-559.057,255.111,-15.153,40.767,1.367,0.115,1.054e-7,-0.003,4.693e-5
15.707,6026.971,554.642,-560.512,254.355,-15.085,40.697,1.462,0.172,1.068e-7,-4.775e-4,4.208e-5
15.757,6039.67,556.064,-561.964,253.603,-14.988,40.615,1.763,0.286,1.08e-7,0.004,4.958e-5
15.807,6052.332,557.484,-563.414,252.855,-14.962,40.529,1.631,0.229,1.082e-7,0.009,6.092e-5
15.857,6064.956,558.9,-564.861,252.106,-14.97,40.454,1.322,0.115,1.096e-7,0.012,1.102e-4
15.907,6077.542,560.314,-566.305,251.357,-15.024,40.402,0.768,0.057,1.097e-7,-0.012,9.546e-5
15.957,6090.091,561.727,-567.748,250.604,-15.059,40.375,0.345,0.229,1.089e-7,-0.009,1.609e-5
16.007,6102.603,563.138,-569.19,249.851,-15.072,40.366,0.046,0.344,1.096e-7,-0.004,-3.081e-6
16.057,6115.077,564.55,-570.633,249.097,-15.059,40.371,0.149,0.401,1.06e-7,0.003,-2.898e-6
16.107,6127.513,565.962,-572.075,248.347,-14.925,40.368,0.3,0.229,1.057e-7,0.009,6.029e-6
16.157,6139.911,567.374,-573.517,247.605,-14.765,40.338,0.896,0.023,1.06e-7,0.011,3.183e-4
16.207,6152.273,568.784,-574.958,246.87,-14.658,40.285,1.214,0.115,1.056e-7,-0.011,8.367e-5
16.257,6164.598,570.191,-576.396,246.14,-14.54,40.213,1.627,0.286,1.07e-7,-0.007,4.394e-5
16.307,6176.887,571.596,-577.832,245.415,-14.48,40.129,1.708,0.286,1.054e-7,-0.003,3.675e-5
16.357,6189.14,572.998,-579.264,244.692,-14.438,40.042,1.704,0.286,1.06e-7,0.003,3.392e-5
16.407,6201.357,574.397,-580.694,243.969,-14.462,39.967,1.306,0.172,1.065e-7,0.007,3.934e-5
16.457,6213.537,575.793,-582.121,243.246,-14.458,39.907,1.104,0.057,1.055e-7,0.009,6.24e-5
16.507,6225.681,577.187,-583.547,242.524,-14.455,39.856,0.911,0.005,1.055e-7,0.01,7.958e-4
16.557,6237.789,578.58,-584.971,241.8,-14.49,39.821,0.507,0.172,1.058e-7,-0.008,-2.279e-7
16.607,6249.861,579.972,-586.394,241.076,-14.486,39.801,0.33,0.229,1.071e-7,-0.005,-7.959e-6
16.657,6261.897,581.364,-587.816,240.351,-14.477,39.789,0.166,0.286,1.082e-7,-9.549e-4,-9.438e-6
16.707,6273.896,582.755,-589.238,239.628,-14.438,39.782,0.146,0.286,1.081e-7,0.004,-1.012e-5
16.757,6285.86,584.145,-590.66,238.909,-14.332,39.767,0.488,0.172,1.075e-7,0.008,-1.489e-6
16.807,6297.787,585.535,-592.081,238.195,-14.206,39.731,0.947,0.037,1.077e-7,-0.009,1.085e-4
16.857,6309.679,586.923,-593.5,237.488,-14.09,39.672,1.377,0.229,1.078e-7,-0.007,4.423e-5
16.907,6321.536,588.309,-594.917,236.785,-14.031,39.6,1.49,0.286,1.085e-7,-0.003,4.296e-5
16.957,6333.358,589.692,-596.331,236.085,-13.989,39.524,1.512,0.286,1.087e-7,0.002,4.48e-5
17.007,6345.145,591.072,-597.743,235.386,-13.984,39.453,1.328,0.229,1.079e-7,0.006,5.192e-5
17.057,6356.897,592.45,-599.152,234.687,-13.976,39.39,1.171,0.172,1.079e-7,0.008,6.497e-5
17.107,6368.613,593.826,-600.56,233.987,-14.012,39.341,0.78,0.02,1.081e-7,-0.009,3.183e-4
17.157,6380.295,595.2,-601.966,233.285,-14.061,39.314,0.332,0.229,1.079e-7,-0.008,2.962e-7
17.207,6391.942,596.574,-603.371,232.582,-14.049,39.3,0.222,0.286,1.066e-7,-0.004,-7.137e-6
17.257,6403.553,597.947,-604.776,231.88,-14.056,39.296,0.012,0.344,1.081e-7,6.366e-4,-1.05e-5
17.307,6415.13,599.321,-606.181,231.178,-14.009,39.295,0.043,0.344,1.077e-7,0.006,-9.51e-6
17.357,6426.671,600.694,-607.586,230.479,-13.938,39.29,0.205,0.286,1.069e-7,0.01,2.252e-7
17.407,6438.178,602.067,-608.991,229.786,-13.796,39.267,0.768,0.005,1.069e-7,0.012,0.001
17.457,6449.65,603.438,-610.394,229.1,-13.643,39.211,1.435,0.286,1.075e-7,-0.01,5.344e-5
17.507,6461.088,604.807,-611.795,228.421,-13.522,39.125,1.957,0.573,1.097e-7,-0.004,4.479e-5
17.557,6472.492,606.173,-613.192,227.746,-13.491,39.026,1.943,0.573,1.128e-7,0.004,4.475e-5
17.607,6483.863,607.535,-614.586,227.071,-13.503,38.935,1.681,0.458,1.106e-7,0.011,5.286e-5
17.657,6495.199,608.894,-615.977,226.395,-13.539,38.86,1.293,0.229,1.124e-7,0.015,7.25e-5
17.707,6506.502,610.251,-617.366,225.717,-13.58,38.805,0.912,0.057,1.13e-7,0.017,1.592e-4
17.757,6517.771,611.606,-618.753,225.037,-13.642,38.77,0.449,0.172,1.133e-7,-0.017,3.158e-5
17.807,6529.006,612.96,-620.14,224.352,-13.751,38.766,0.232,0.458,1.128e-7,-0.012,-3.548e-6
17.857,6540.206,614.315,-621.527,223.663,-13.776,38.785,0.486,0.63,1.132e-7,-0.005,-9.333e-6
17.907,6551.372,615.67,-622.914,222.975,-13.752,38.811,0.519,0.63,1.099e-7,0.003,-9.618e-6
17.957,6562.503,617.027,-624.303,222.289,-13.655,38.831,0.226,0.458,1.092e-7,0.01,-8.432e-6
18.007,6573.601,618.383,-625.692,221.61,-13.503,38.828,0.35,0.172,1.091e-7,0.015,1.881e-5
18.057,6584.665,619.739,-627.08,220.939,-13.332,38.793,1.065,0.172,1.094e-7,-0.015,8.973e-5
18.107,6595.695,621.093,-628.467,220.277,-13.186,38.723,1.703,0.516,1.094e-7,-0.011,5.171e-5
18.157,6606.692,622.445,-629.85,219.619,-13.115,38.631,1.938,0.63,1.081e-7,-0.004,5.015e-5
18.207,6617.657,623.792,-631.231,218.964,-13.098,38.534,1.866,0.573,1.105e-7,0.004,5.346e-5
18.257,6628.589,625.137,-632.608,218.309,-13.132,38.45,1.499,0.401,1.116e-7,0.01,6.121e-5
18.307,6639.488,626.479,-633.982,217.651,-13.174,38.384,1.116,0.229,1.108e-7,0.014,8.843e-5
18.357,6650.354,627.819,-635.354,216.991,-13.249,38.341,0.584,0.057,1.11e-7,-0.015,1.576e-4
18.407,6661.187,629.157,-636.726,216.327,-13.304,38.323,0.183,0.286,1.115e-7,-0.012,1.357e-5
18.457,6671.987,630.496,-638.097,215.661,-13.296,38.316,0.114,0.344,1.114e-7,-0.009,-3.126e-6
18.507,6682.753,631.834,-639.468,214.997,-13.277,38.311,0.088,0.344,1.104e-7,-0.005,-1.228e-5
18.557,6693.486,633.172,-640.838,214.333,-13.269,38.309,0.011,0.401,1.094e-7,-6.366e-4,-1.311e-5
18.607,6704.186,634.51,-642.209,213.67,-13.267,38.314,0.143,0.458,1.092e-7,0.005,-1.49e-5
18.657,6714.853,635.848,-643.58,213.009,-13.156,38.312,0.253,0.229,1.088e-7,0.009,-8.036e-8
18.707,6725.487,637.186,-644.951,212.354,-13.062,38.291,0.569,0.057,1.095e-7,0.011,7.299e-5
18.757,6736.089,638.522,-646.32,211.703,-12.967,38.255,0.905,0.115,1.094e-7,-0.01,8.551e-5
18.807,6746.658,639.857,-647.688,211.057,-12.862,38.199,1.315,0.344,1.101e-7,-0.007,5.36e-5
18.857,6757.195,641.19,-649.054,210.417,-12.772,38.123,1.666,0.573,1.087e-7,-0.002,4.954e-5
18.907,6767.699,642.52,-650.417,209.778,-12.764,38.042,1.564,0.516,1.102e-7,0.004,4.827e-5
18.957,6778.172,643.847,-651.777,209.14,-12.766,37.967,1.421,0.458,1.093e-7,0.009,5.644e-5
19.007,6788.613,645.171,-653.134,208.501,-12.796,37.903,1.132,0.286,1.094e-7,0.013,7.195e-5
19.057,6799.022,646.494,-654.49,207.86,-12.838,37.854,0.798,0.057,1.1e-7,0.015,1.592e-4
19.107,6809.399,647.815,-655.844,207.217,-12.916,37.827,0.307,0.229,1.099e-7,-0.014,1.811e-5
19.157,6819.744,649.135,-657.198,206.57,-12.953,37.819,0.039,0.401,1.094e-7,-0.011,-6.01e-6
19.207,6830.056,650.455,-658.552,205.922,-12.945,37.818,0.021,0.401,1.095e-7,-0.007,-1.244e-5
19.257,6840.336,651.776,-659.905,205.275,-12.951,37.823,0.15,0.516,1.1e-7,-0.002,-1.419e-5
19.307,6850.584,653.096,-661.259,204.628,-12.913,37.83,0.091,0.458,1.1e-7,0.003,-9.934e-6
19.357,6860.799,654.417,-662.613,203.984,-12.823,37.828,0.201,0.286,1.108e-7,0.007,1.083e-6
19.407,6870.982,655.737,-663.967,203.345,-12.73,37.81,0.515,0.115,1.105e-7,0.009,7.49e-5
19.457,6881.134,657.057,-665.32,202.712,-12.624,37.774,0.904,0.172,1.104e-7,-0.008,9.549e-5
19.507,6891.254,658.375,-666.671,202.082,-12.56,37.724,1.101,0.286,1.105e-7,-0.006,6.778e-5
19.557,6901.342,659.69,-668.021,201.456,-12.487,37.662,1.353,0.458,1.112e-7,-0.002,6.043e-5
19.607,6911.399,661.004,-669.368,200.832,-12.484,37.597,1.243,0.401,1.115e-7,0.002,6.288e-5
19.657,6921.425,662.315,-670.713,200.208,-12.482,37.536,1.138,0.344,1.111e-7,0.005,7.046e-5
19.707,6931.42,663.624,-672.055,199.583,-12.514,37.487,0.865,0.172,1.108e-7,0.008,1.044e-4
19.757,6941.384,664.932,-673.397,198.957,-12.525,37.447,0.71,0.057,1.111e-7,0.009,1.592e-4
19.807,6951.316,666.238,-674.737,198.331,-12.536,37.416,0.559,0.042,1.111e-7,-0.009,1.592e-4
19.857,6961.217,667.544,-676.076,197.704,-12.535,37.39,0.474,0.115,1.113e-7,-0.008,4.493e-5
19.907,6971.086,668.848,-677.415,197.077,-12.558,37.371,0.273,0.229,1.113e-7,-0.007,1.243e-6
19.957,6980.924,670.152,-678.752,196.448,-12.585,37.364,0.057,0.401,1.114e-7,-0.004,-4.829e-6
20.007,6990.731,671.456,-680.09,195.819,-12.549,37.359,0.123,0.344,1.113e-7,-4.775e-4,-1.037e-5
20.057,7000.506,672.76,-681.428,195.192,-12.539,37.355,0.064,0.344,1.112e-7,0.003,-1.403e-5
20.107,7010.25,674.063,-682.765,194.567,-12.48,37.348,0.222,0.286,1.113e-7,0.006,-6.474e-6
20.157,7019.963,675.366,-684.102,193.944,-12.404,37.331,0.466,0.115,1.113e-7,0.007,4.545e-5
20.207,7029.645,676.669,-685.439,193.326,-12.34,37.303,0.653,0.044,1.113e-7,-0.008,1.592e-4
20.257,7039.295,677.97,-686.774,192.71,-12.288,37.267,0.792,0.172,1.115e-7,-0.007,7.256e-5
20.307,7048.916,679.269,-688.108,192.097,-12.242,37.224,0.908,0.229,1.114e-7,-0.005,5.437e-5
20.357,7058.505,680.568,-689.44,191.485,-12.218,37.178,0.92,0.229,1.119e-7,-0.003,4.773e-5
20.407,7068.064,681.864,-690.77,190.876,-12.176,37.129,1.026,0.344,1.12e-7,-3.183e-4,4.429e-5
20.457,7077.593,683.158,-692.099,190.267,-12.174,37.08,0.935,0.286,1.114e-7,0.002,4.506e-5
20.507,7087.091,684.451,-693.426,189.659,-12.152,37.033,0.946,0.286,1.113e-7,0.005,4.665e-5
20.557,7096.559,685.743,-694.752,189.051,-12.171,36.99,0.759,0.172,1.113e-7,0.007,6.096e-5
20.607,7105.996,687.032,-696.076,188.442,-12.18,36.955,0.627,0.055,1.114e-7,0.007,9.86e-5
20.657,7115.403,688.321,-697.399,187.832,-12.214,36.931,0.375,0.115,1.114e-7,-0.007,-2.106e-7
20.707,7124.779,689.609,-698.722,187.222,-12.202,36.912,0.351,0.172,1.115e-7,-0.006,-1.787e-5
20.757,7134.125,690.897,-700.044,186.612,-12.194,36.896,0.305,0.172,1.116e-7,-0.004,-2.597e-5
20.807,7143.44,692.184,-701.365,186.003,-12.175,36.881,0.311,0.172,1.119e-7,-0.003,-3.47e-5
20.857,7152.725,693.47,-702.686,185.394,-12.149,36.865,0.345,0.172,1.12e-7,-0.002,-4.367e-5
20.907,7161.98,694.755,-704.006,184.788,-12.121,36.847,0.386,0.115,1.118e-7,-4.775e-4,-4.45e-5
20.957,7171.204,696.04,-705.326,184.183,-12.081,36.825,0.485,0.046,1.118e-7,1.592e-4,-4.154e-5
21.007,7180.398,697.324,-706.644,183.579,-12.061,36.8,0.484,0.043,1.118e-7,4.775e-4,-4.315e-5
21.057,7189.562,698.608,-707.962,182.976,-12.044,36.777,0.477,0.046,1.118e-7,9.549e-4,-4.985e-5
21.107,7198.696,699.89,-709.279,182.375,-11.999,36.75,0.598,0.054,1.118e-7,-7.958e-4,6.126e-5
21.157,7207.8,701.171,-710.595,181.776,-11.979,36.72,0.605,0.057,1.118e-7,-4.775e-4,5.847e-5
21.207,7216.873,702.451,-711.91,181.178,-11.927,36.685,0.761,0.172,1.117e-7,6.366e-4,5.855e-5
21.257,7225.917,703.73,-713.224,180.583,-11.902,36.647,0.796,0.229,1.115e-7,0.002,5.894e-5
21.307,7234.932,705.008,-714.536,179.988,-11.873,36.605,0.851,0.286,1.112e-7,0.004,5.86e-5
21.357,7243.916,706.284,-715.847,179.394,-11.883,36.565,0.727,0.172,1.11e-7,0.006,7.074e-5
21.407,7252.871,707.558,-717.157,178.8,-11.884,36.531,0.646,0.115,1.109e-7,0.007,8.504e-5
21.457,7261.796,708.832,-718.465,178.206,-11.901,36.502,0.496,0.019,1.109e-7,-0.007,1.592e-4
21.507,7270.692,710.104,-719.772,177.61,-11.91,36.48,0.387,0.115,1.109e-7,-0.007,-2.005e-6
21.557,7279.557,711.376,-721.079,177.014,-11.924,36.464,0.259,0.229,1.108e-7,-0.005,-1.73e-5
21.607,7288.393,712.647,-722.386,176.418,-11.919,36.453,0.209,0.286,1.11e-7,-0.004,-2.381e-5
21.657,7297.199,713.918,-723.692,175.824,-11.869,36.439,0.358,0.115,1.113e-7,-0.002,-3.958e-5
21.707,7305.976,715.188,-724.997,175.23,-11.865,36.422,0.303,0.172,1.111e-7,-0.001,-3.858e-5
21.757,7314.722,716.458,-726.302,174.637,-11.865,36.409,0.228,0.229,1.111e-7,4.775e-4,-3.958e-5
21.807,7323.439,717.728,-727.607,174.044,-11.867,36.4,0.142,0.344,1.113e-7,0.002,-4.374e-5
21.857,7332.127,718.997,-728.911,173.451,-11.827,36.391,0.232,0.229,1.112e-7,0.004,-4.324e-5
21.907,7340.784,720.265,-730.215,172.86,-11.806,36.379,0.241,0.229,1.113e-7,0.006,-5.329e-5
21.957,7349.413,721.533,-731.518,172.271,-11.752,36.364,0.398,0.057,1.111e-7,0.007,-7.315e-5
22.007,7358.012,722.801,-732.821,171.685,-11.683,36.338,0.628,0.115,1.11e-7,-0.007,3.699e-5
22.057,7366.581,724.067,-734.123,171.103,-11.611,36.3,0.884,0.401,1.11e-7,-0.005,4.81e-5
22.107,7375.122,725.332,-735.423,170.524,-11.572,36.253,0.988,0.458,1.114e-7,-0.002,4.919e-5
22.157,7383.634,726.595,-736.721,169.946,-11.518,36.199,1.171,0.63,1.118e-7,0.001,5.048e-5
22.207,7392.117,727.856,-738.018,169.372,-11.483,36.137,1.261,0.745,1.119e-7,0.006,5.227e-5
22.257,7400.571,729.115,-739.312,168.797,-11.498,36.078,1.12,0.63,1.114e-7,0.011,5.386e-5
22.307,7408.996,730.371,-740.604,168.222,-11.526,36.026,0.925,0.458,1.11e-7,0.014,5.994e-5
22.357,7417.393,731.626,-741.895,167.644,-11.571,35.987,0.662,0.172,1.11e-7,0.016,8.346e-5
22.407,7425.761,732.88,-743.184,167.065,-11.605,35.958,0.468,0.007,1.111e-7,-0.016,7.958e-4
22.457,7434.099,734.133,-744.473,166.483,-11.657,35.941,0.203,0.286,1.11e-7,-0.015,-2.198e-5
22.507,7442.409,735.386,-745.762,165.899,-11.714,35.939,0.068,0.516,1.111e-7,-0.013,-3.218e-5
22.557,7450.689,736.639,-747.05,165.313,-11.734,35.945,0.187,0.688,1.112e-7,-0.009,-3.532e-5
22.607,7458.94,737.892,-748.339,164.726,-11.726,35.955,0.199,0.688,1.111e-7,-0.005,-3.957e-5
22.657,7467.162,739.145,-749.628,164.139,-11.735,35.968,0.292,0.745,1.108e-7,-6.366e-4,-3.904e-5
22.707,7475.354,740.399,-750.918,163.553,-11.718,35.982,0.288,0.745,1.103e-7,0.004,-4.055e-5
22.757,7483.517,741.653,-752.208,162.968,-11.675,35.995,0.195,0.688,1.105e-7,0.008,-3.937e-5
22.807,7491.651,742.908,-753.498,162.386,-11.615,36.001,0.036,0.516,1.109e-7,0.012,-3.92e-5
22.857,7499.756,744.163,-754.789,161.808,-11.511,35.994,0.304,0.172,1.108e-7,0.014,-1.845e-5
22.907,7507.832,745.417,-756.079,161.234,-11.417,35.971,0.625,0.172,1.107e-7,-0.014,7.151e-5
22.957,7515.879,746.67,-757.368,160.665,-11.346,35.934,0.861,0.458,1.105e-7,-0.012,5.583e-5
23.007,7523.898,747.921,-758.655,160.1,-11.283,35.885,1.073,0.688,1.108e-7,-0.009,5.091e-5
23.057,7531.889,749.171,-759.941,159.537,-11.239,35.828,1.208,0.802,1.112e-7,-0.004,5.012e-5
23.107,7539.852,750.418,-761.225,158.975,-11.23,35.767,1.186,0.802,1.112e-7,4.775e-4,5.101e-5
23.157,7547.787,751.664,-762.506,158.413,-11.247,35.712,1.045,0.688,1.112e-7,0.005,5.531e-5
23.207,7555.693,752.907,-763.786,157.851,-11.259,35.662,0.93,0.573,1.112e-7,0.008,5.844e-5
23.257,7563.572,754.149,-765.064,157.287,-11.3,35.621,0.691,0.286,1.112e-7,0.01,6.957e-5
23.307,7571.422,755.39,-766.341,156.721,-11.327,35.591,0.523,0.115,1.112e-7,0.012,1.028e-4
23.357,7579.244,756.629,-767.616,156.154,-11.344,35.568,0.403,0.016,1.112e-7,-0.012,3.183e-4
23.407,7587.038,757.868,-768.892,155.587,-11.352,35.55,0.326,0.115,1.112e-7,-0.011,-1.414e-6
23.457,7594.803,759.107,-770.166,155.019,-11.339,35.533,0.337,0.115,1.113e-7,-0.011,-2.414e-5
23.507,7602.539,760.344,-771.44,154.452,-11.35,35.518,0.252,0.229,1.113e-7,-0.01,-4.163e-5
23.557,7610.248,761.582,-772.714,153.884,-11.377,35.51,0.104,0.401,1.11e-7,-0.009,-4.348e-5
23.607,7617.928,762.819,-773.987,153.315,-11.382,35.506,0.044,0.458,1.111e-7,-0.007,-4.326e-5
23.657,7625.579,764.056,-775.261,152.746,-11.383,35.505,0.009,0.516,1.11e-7,-0.004,-4.566e-5
23.707,7633.202,765.293,-776.534,152.177,-11.37,35.506,0.007,0.516,1.11e-7,-0.001,-4.789e-5
23.757,7640.797,766.529,-777.808,151.609,-11.344,35.505,0.048,0.458,1.111e-7,9.549e-4,-4.658e-5
23.807,7648.363,767.766,-779.081,151.043,-11.311,35.501,0.12,0.344,1.114e-7,0.003,-4.566e-5
23.857,7655.901,769.003,-780.354,150.478,-11.261,35.491,0.255,0.172,1.115e-7,0.004,-4.173e-5
23.907,7663.411,770.239,-781.627,149.916,-11.22,35.476,0.361,0.056,1.116e-7,0.005,-2.211e-5
23.957,7670.893,771.475,-782.899,149.356,-11.188,35.456,0.429,0.036,1.116e-7,-0.005,8.884e-5
24.007,7678.347,772.709,-784.17,148.798,-11.151,35.432,0.524,0.172,1.116e-7,-0.005,6.124e-5
24.057,7685.773,773.943,-785.441,148.241,-11.101,35.402,0.674,0.344,1.116e-7,-0.003,5.828e-5
24.107,7693.171,775.176,-786.71,147.687,-11.066,35.366,0.765,0.458,1.116e-7,-0.001,5.763e-5
24.157,7700.542,776.407,-787.978,147.134,-11.046,35.327,0.796,0.516,1.119e-7,0.001,5.798e-5
24.207,7707.885,777.637,-789.244,146.582,-11.04,35.288,0.77,0.516,1.119e-7,0.004,5.787e-5
24.257,7715.2,778.865,-790.509,146.03,-11.047,35.251,0.695,0.401,1.12e-7,0.006,5.704e-5
24.307,7722.488,780.092,-791.773,145.478,-11.057,35.218,0.607,0.286,1.118e-7,0.007,6.08e-5
24.357,7729.748,781.318,-793.036,144.925,-11.065,35.19,0.533,0.229,1.118e-7,0.008,6.201e-5
24.407,7736.98,782.543,-794.298,144.371,-11.06,35.164,0.514,0.172,1.119e-7,0.009,5.446e-5
24.457,7744.185,783.768,-795.559,143.818,-11.084,35.141,0.38,0.003,1.118e-7,-0.01,1.592e-4
24.507,7751.362,784.991,-796.82,143.263,-11.116,35.126,0.223,0.229,1.118e-7,-0.009,-4.493e-5
24.557,7758.511,786.214,-798.08,142.707,-11.119,35.116,0.178,0.286,1.118e-7,-0.008,-4.962e-5
24.607,7765.632,787.437,-799.34,142.151,-11.108,35.108,0.181,0.286,1.118e-7,-0.007,-5.704e-5
24.657,7772.726,788.66,-800.599,141.596,-11.094,35.098,0.196,0.286,1.117e-7,-0.006,-6.24e-5
24.707,7779.792,789.882,-801.858,141.042,-11.084,35.088,0.196,0.286,1.116e-7,-0.004,-6.435e-5
24.757,7786.83,791.103,-803.117,140.487,-11.083,35.08,0.161,0.286,1.116e-7,-0.003,-6.333e-5
24.807,7793.841,792.325,-804.375,139.934,-11.064,35.071,0.19,0.286,1.116e-7,-0.002,-6.31e-5
24.857,7800.824,793.546,-805.634,139.381,-11.039,35.06,0.239,0.172,1.115e-7,-9.549e-4,-6.417e-5
24.907,7807.779,794.767,-806.891,138.829,-11.034,35.049,0.217,0.229,1.116e-7,-4.116e-5,-6.377e-5
24.957,7814.707,795.987,-808.149,138.278,-11.018,35.038,0.233,0.229,1.115e-7,7.958e-4,-6.419e-5
25.007,7821.607,797.207,-809.406,137.728,-10.994,35.025,0.277,0.115,1.115e-7,0.002,-6.618e-5
25.057,7828.479,798.426,-810.662,137.179,-10.966,35.01,0.336,0.041,1.115e-7,0.002,-7.679e-5
25.107,7835.325,799.645,-811.918,136.631,-10.946,34.992,0.366,0.01,1.115e-7,-0.002,-1.081e-5
25.157,7842.143,800.863,-813.173,136.084,-10.942,34.974,0.34,0.024,1.115e-7,0.002,-1.079e-4
25.207,7848.933,802.08,-814.428,135.537,-10.923,34.957,0.365,0.021,1.115e-7,-0.002,-1.074e-6
25.257,7855.696,803.297,-815.682,134.991,-10.91,34.939,0.371,0.036,1.115e-7,-0.002,2.198e-5
25.307,7862.432,804.513,-816.936,134.447,-10.877,34.918,0.454,0.172,1.116e-7,-0.001,5.039e-5
25.357,7869.141,805.728,-818.188,133.903,-10.854,34.894,0.498,0.229,1.116e-7,-6.366e-4,5.322e-5
25.407,7875.823,806.943,-819.44,133.362,-10.816,34.866,0.601,0.401,1.114e-7,6.366e-4,5.293e-5
25.457,7882.477,808.156,-820.691,132.821,-10.799,34.836,0.625,0.458,1.114e-7,0.002,5.074e-5
25.507,7889.105,809.368,-821.941,132.282,-10.785,34.804,0.64,0.516,1.113e-7,0.004,5.032e-5
25.557,7895.705,810.579,-823.189,131.742,-10.793,34.774,0.572,0.401,1.113e-7,0.006,4.896e-5
25.607,7902.279,811.789,-824.437,131.203,-10.788,34.745,0.558,0.344,1.112e-7,0.007,4.73e-5
25.657,7908.826,812.998,-825.683,130.663,-10.798,34.719,0.486,0.229,1.113e-7,0.008,4.159e-5
25.707,7915.345,814.207,-826.929,130.123,-10.804,34.697,0.431,0.172,1.113e-7,0.009,2.959e-5
25.757,7921.838,815.414,-828.174,129.583,-10.798,34.675,0.423,0.172,1.114e-7,0.01,2.198e-5
25.807,7928.304,816.621,-829.418,129.043,-10.81,34.656,0.349,0.025,1.114e-7,0.01,-1.592e-4
25.857,7934.742,817.827,-830.662,128.502,-10.813,34.639,0.312,0.04,1.114e-7,-0.01,-1.592e-4
25.907,7941.154,819.032,-831.905,127.961,-10.844,34.627,0.178,0.286,1.113e-7,-0.009,-8.403e-5
25.957,7947.538,820.237,-833.148,127.418,-10.864,34.621,0.085,0.458,1.115e-7,-0.008,-7.555e-5
26.007,7953.896,821.442,-834.39,126.875,-10.851,34.616,0.102,0.401,1.116e-7,-0.007,-7.574e-5
26.057,7960.226,822.647,-835.633,126.332,-10.868,34.613,0.02,0.573,1.116e-7,-0.005,-7.34e-5
26.107,7966.529,823.852,-836.875,125.789,-10.843,34.611,0.071,0.458,1.115e-7,-0.003,-7.366e-5
26.157,7972.805,825.056,-838.118,125.248,-10.82,34.606,0.114,0.401,1.114e-7,-0.002,-7.214e-5
26.207,7979.054,826.261,-839.36,124.707,-10.791,34.599,0.178,0.286,1.115e-7,-4.775e-4,-7.265e-5
26.257,7985.275,827.465,-840.602,124.168,-10.77,34.589,0.214,0.229,1.115e-7,3.183e-4,-7.119e-5
26.307,7991.47,828.668,-841.843,123.63,-10.757,34.578,0.225,0.172,1.114e-7,9.549e-4,-7.202e-5
26.357,7997.638,829.872,-843.084,123.093,-10.733,34.566,0.27,0.115,1.114e-7,0.001,-7.48e-5
26.407,8003.78,831.074,-844.325,122.557,-10.703,34.551,0.336,0.037,1.114e-7,-0.001,5.835e-5
26.457,8009.894,832.277,-845.565,122.023,-10.676,34.532,0.395,0.172,1.114e-7,-0.001,6.726e-5
26.507,8015.982,833.478,-846.804,121.489,-10.655,34.512,0.432,0.229,1.113e-7,-4.775e-4,6.807e-5
26.557,8022.043,834.679,-848.043,120.957,-10.636,34.489,0.465,0.286,1.113e-7,3.183e-4,6.799e-5
26.607,8028.078,835.878,-849.281,120.425,-10.622,34.466,0.48,0.344,1.113e-7,0.001,6.648e-5
26.657,8034.086,837.077,-850.518,119.895,-10.611,34.441,0.487,0.344,1.112e-7,0.002,6.61e-5
26.707,8040.067,838.276,-851.754,119.364,-10.618,34.418,0.435,0.286,1.112e-7,0.003,6.481e-5
26.757,8046.022,839.473,-852.989,118.833,-10.623,34.398,0.389,0.172,1.112e-7,0.004,6.484e-5
26.807,8051.95,840.669,-854.224,118.302,-10.606,34.378,0.418,0.229,1.112e-7,0.005,6.363e-5
26.857,8057.852,841.865,-855.458,117.772,-10.612,34.358,0.372,0.172,1.112e-7,0.005,5.835e-5
26.907,8063.728,843.061,-856.691,117.241,-10.61,34.34,0.35,0.115,1.112e-7,0.006,5.029e-5
26.957,8069.576,844.255,-857.924,116.71,-10.626,34.324,0.271,0.052,1.112e-7,-0.006,-1.093e-4
27.007,8075.399,845.449,-859.156,116.179,-10.631,34.312,0.232,0.115,1.112e-7,-0.006,-8.693e-5
27.057,8081.194,846.643,-860.388,115.647,-10.628,34.301,0.215,0.172,1.112e-7,-0.005,-8.598e-5
27.107,8086.963,847.836,-861.619,115.117,-10.595,34.288,0.294,0.004,1.112e-7,0.005,-7.958e-4
27.157,8092.706,849.029,-862.85,114.587,-10.584,34.273,0.306,0.033,1.112e-7,0.005,-4.738e-5
27.207,8098.422,850.221,-864.081,114.058,-10.578,34.258,0.297,0.017,1.112e-7,0.005,-1.592e-4
27.257,8104.112,851.413,-865.311,113.53,-10.56,34.242,0.331,0.115,1.112e-7,0.005,2.734e-5
27.307,8109.775,852.604,-866.54,113.002,-10.54,34.225,0.368,0.172,1.112e-7,0.005,4.935e-5
27.357,8115.412,853.794,-867.769,112.475,-10.538,34.207,0.35,0.172,1.112e-7,0.006,4.439e-5
27.407,8121.023,854.984,-868.997,111.948,-10.543,34.19,0.313,0.057,1.112e-7,0.006,5.362e-6
27.457,8126.607,856.173,-870.224,111.421,-10.535,34.175,0.314,0.057,1.112e-7,0.006,2.042e-5
27.507,8132.165,857.362,-871.452,110.895,-10.531,34.159,0.303,0.045,1.112e-7,0.007,4.749e-6
27.557,8137.696,858.55,-872.678,110.368,-10.546,34.146,0.236,0.115,1.112e-7,-0.006,-1.102e-4
27.607,8143.202,859.737,-873.904,109.841,-10.52,34.133,0.292,0.023,1.112e-7,0.006,1.092e-5
27.657,8148.68,860.925,-875.13,109.316,-10.504,34.118,0.316,0.057,1.112e-7,0.006,7.714e-5
27.707,8154.133,862.111,-876.355,108.791,-10.481,34.1,0.365,0.229,1.112e-7,0.007,8.715e-5
27.757,8159.56,863.297,-877.579,108.267,-10.49,34.083,0.317,0.115,1.113e-7,0.007,9.621e-5
27.807,8164.96,864.482,-878.803,107.742,-10.485,34.068,0.31,0.057,1.113e-7,0.007,1.067e-4
27.857,8170.334,865.667,-880.026,107.218,-10.49,34.053,0.275,0.01,1.113e-7,-0.007,1.278e-4
27.907,8175.682,866.852,-881.249,106.693,-10.509,34.041,0.201,0.172,1.113e-7,-0.007,-7.296e-5
27.957,8181.003,868.035,-882.472,106.168,-10.505,34.031,0.193,0.229,1.113e-7,-0.007,-7.361e-5
28.007,8186.298,869.219,-883.694,105.642,-10.525,34.024,0.117,0.401,1.113e-7,-0.006,-7.729e-5
28.057,8191.567,870.402,-884.916,105.115,-10.532,34.019,0.078,0.516,1.112e-7,-0.005,-7.951e-5
28.107,8196.81,871.586,-886.138,104.589,-10.519,34.015,0.095,0.458,1.112e-7,-0.004,-8.066e-5
28.157,8202.026,872.769,-887.359,104.064,-10.485,34.008,0.168,0.286,1.112e-7,-0.003,-8.033e-5
28.207,8207.216,873.951,-888.581,103.54,-10.489,34,0.137,0.344,1.111e-7,-0.002,-8.101e-5
28.257,8212.38,875.134,-889.802,103.015,-10.501,33.995,0.082,0.516,1.111e-7,-0.001,-8.107e-5
28.307,8217.518,876.316,-891.023,102.49,-10.499,33.991,0.067,0.516,1.111e-7,-6.357e-5,-8.087e-5
28.357,8222.629,877.498,-892.244,101.965,-10.499,33.989,0.045,0.573,1.111e-7,0.001,-8.085e-5
28.407,8227.714,878.68,-893.465,101.441,-10.473,33.985,0.094,0.458,1.112e-7,0.002,-8.141e-5
28.457,8232.773,879.862,-894.685,100.918,-10.45,33.979,0.134,0.344,1.111e-7,0.003,-7.947e-5
28.507,8237.806,881.044,-895.906,100.396,-10.418,33.971,0.2,0.172,1.111e-7,0.004,-6.903e-5
28.557,8242.813,882.225,-897.126,99.876,-10.388,33.959,0.262,0.04,1.111e-7,-0.004,1.592e-4
28.607,8247.794,883.406,-898.345,99.357,-10.361,33.945,0.316,0.229,1.111e-7,-0.004,1.061e-4
28.657,8252.749,884.586,-899.565,98.84,-10.326,33.927,0.393,0.458,1.111e-7,-0.003,9.931e-5
28.707,8257.678,885.766,-900.783,98.324,-10.305,33.907,0.432,0.573,1.111e-7,-0.002,9.788e-5
28.757,8262.581,886.945,-902.001,97.81,-10.267,33.883,0.521,0.859,1.112e-7,-4.775e-4,9.707e-5
28.807,8267.459,888.123,-903.217,97.297,-10.264,33.857,0.511,0.802,1.112e-7,0.001,9.724e-5
28.857,8272.311,889.3,-904.433,96.784,-10.261,33.832,0.498,0.802,1.112e-7,0.003,9.809e-5
28.907,8277.137,890.476,-905.648,96.271,-10.257,33.807,0.49,0.802,1.112e-7,0.004,9.936e-5
28.957,8281.938,891.651,-906.862,95.758,-10.246,33.782,0.502,0.859,1.112e-7,0.006,9.955e-5
29.007,8286.713,892.825,-908.076,95.246,-10.239,33.757,0.503,0.859,1.112e-7,0.008,9.933e-5
29.057,8291.462,893.999,-909.288,94.734,-10.256,33.734,0.435,0.63,1.113e-7,0.009,9.844e-5
29.107,8296.186,895.171,-910.5,94.221,-10.254,33.712,0.424,0.63,1.113e-7,0.01,9.837e-5
29.157,8300.884,896.343,-911.711,93.708,-10.263,33.692,0.382,0.516,1.113e-7,0.011,9.771e-5
29.207,8305.557,897.514,-912.921,93.194,-10.282,33.675,0.311,0.286,1.112e-7,0.012,9.304e-5
29.257,8310.204,898.685,-914.13,92.68,-10.276,33.659,0.313,0.286,1.112e-7,0.012,9.589e-5
29.307,8314.825,899.855,-915.34,92.166,-10.291,33.645,0.26,0.115,1.112e-7,0.013,8.259e-5
29.357,8319.421,901.025,-916.548,91.652,-10.285,33.632,0.262,0.115,1.112e-7,0.013,9.213e-5
29.407,8323.99,902.194,-917.757,91.137,-10.295,33.62,0.222,0.022,1.112e-7,-0.013,-1.592e-4
29.457,8328.534,903.362,-918.964,90.623,-10.288,33.608,0.227,0.004,1.112e-7,-0.013,-3.183e-4
29.507,8333.053,904.531,-920.172,90.109,-10.284,33.597,0.225,0.014,1.112e-7,-0.013,-1.468e-4
29.557,8337.545,905.699,-921.379,89.594,-10.29,33.587,0.198,0.115,1.112e-7,-0.013,-1.15e-4
29.607,8342.012,906.866,-922.586,89.08,-10.284,33.577,0.198,0.115,1.112e-7,-0.013,-1.144e-4
29.657,8346.453,908.033,-923.792,88.565,-10.295,33.568,0.161,0.229,1.112e-7,-0.012,-1.137e-4
29.707,8350.868,909.2,-924.998,88.05,-10.314,33.561,0.103,0.458,1.112e-7,-0.012,-1.141e-4
29.757,8355.258,910.367,-926.204,87.534,-10.334,33.558,0.044,0.688,1.112e-7,-0.011,-1.146e-4
29.807,8359.622,911.534,-927.41,87.017,-10.324,33.555,0.059,0.63,1.112e-7,-0.01,-1.168e-4
29.857,8363.96,912.7,-928.616,86.501,-10.326,33.553,0.041,0.688,1.112e-7,-0.009,-1.172e-4
29.907,8368.272,913.867,-929.821,85.985,-10.311,33.55,0.064,0.63,1.111e-7,-0.008,-1.187e-4
29.957,8372.558,915.033,-931.027,85.47,-10.303,33.547,0.07,0.63,1.111e-7,-0.007,-1.197e-4
30.007,8376.819,916.199,-932.232,84.955,-10.299,33.543,0.068,0.63,1.111e-7,-0.006,-1.21e-4
30.057,8381.054,917.365,-933.438,84.44,-10.289,33.54,0.076,0.573,1.111e-7,-0.005,-1.22e-4
30.107,8385.263,918.531,-934.643,83.926,-10.271,33.535,0.106,0.458,1.111e-7,-0.004,-1.234e-4
