# Time (s),Position East of launch (m),Position North of launch (m),Vertical acceleration (m/s²),Lateral acceleration (m/s²),Angle of attack (°),Roll rate (r/s),Pitch rate (r/s),Yaw rate (r/s),Air temperature (°C),Air pressure (Pa)
0,0,0,0,0,86.001,0,0,0,35.814,9.139e4
0.009,0,0,0,0,86.001,0,0,0,35.814,9.139e4
0.019,4.812e-5,-4.812e-5,49.17,4.083,83.537,0,0,0,35.814,9.139e4
0.029,3.849e-4,-3.849e-4,107.596,8.167,74.656,0,0,0,35.813,9.139e4
0.039,0.001,-0.001,166.122,11.616,60.848,0,0,0,35.813,9.139e4
0.044,0.002,-0.002,195.382,13.662,53.228,0,0,0,35.813,9.139e4
0.051,0.004,-0.004,191.219,13.371,43.602,0,0,0,35.813,9.139e4
0.063,0.007,-0.007,184.824,12.924,33.747,0,0,0,35.813,9.139e4
0.073,0.011,-0.011,188.143,13.156,27.96,0,0,0,35.813,9.139e4
0.078,0.013,-0.013,189.804,13.272,25.726,0,0,0,35.813,9.139e4
0.086,0.017,-0.017,186.056,13.01,22.918,0,0,0,35.812,9.139e4
0.094,0.022,-0.022,181.803,12.713,20.397,0,0,0,35.812,9.139e4
0.104,0.029,-0.029,184.925,12.931,18.048,0,0,0,35.812,9.139e4
0.109,0.033,-0.033,186.488,13.041,17.017,0,0,0,35.811,9.139e4
0.117,0.039,-0.039,183.558,12.836,15.699,0,0,0,35.811,9.139e4
0.125,0.047,-0.047,180.233,12.603,14.381,0,0,0,35.81,9.139e4
0.135,0.056,-0.056,180.93,12.652,13.121,0,0,0,35.81,9.139e4
0.147,0.069,-0.069,181.769,12.711,11.86,0,0,0,35.809,9.139e4
0.157,0.081,-0.081,181.549,12.695,10.943,0,0,0,35.808,9.139e4
0.167,0.093,-0.093,181.328,12.68,10.084,0,0,0,35.807,9.139e4
0.177,0.107,-0.107,181.106,12.664,9.339,0,0,0,35.806,9.139e4
0.187,0.121,-0.121,180.883,12.649,8.652,0,0,0,35.805,9.138e4
0.194,0.132,-0.132,180.727,12.638,8.251,0,0,0,35.804,9.138e4
0.204,0.147,-0.147,181.403,12.685,7.678,0,0,0,35.803,9.138e4
0.214,0.164,-0.164,182.08,12.732,7.219,0,0,0,35.802,9.138e4
0.224,0.182,-0.182,182.758,12.78,6.818,0,0,0,35.801,9.138e4
0.234,0.2,-0.2,183.43,12.915,6.417,0,0,0,35.8,9.138e4
0.249,0.23,-0.23,184.45,12.969,5.901,0,4.775e-4,-2.769e-8,35.798,9.138e4
0.272,0.278,-0.278,185.981,13.075,5.214,0,0.001,-6.275e-8,35.794,9.137e4
0.305,0.359,-0.359,188.28,13.28,4.412,0,0.003,-3.493e-7,35.789,9.137e4
0.35,0.483,-0.483,191.334,13.59,3.953,0,0.005,-5.901e-7,35.78,9.136e4
0.4,0.644,-0.644,197.797,14.541,2.922,0,0.008,-1.528e-6,35.769,9.134e4
0.428,0.746,-0.746,201.43,15.107,2.636,0,0.01,-2.217e-6,35.762,9.134e4
0.47,0.914,-0.914,203.955,15.889,2.349,0,0.013,-2.478e-6,35.751,9.132e4
0.52,1.14,-1.14,206.945,17.117,1.948,0,0.017,-4.638e-6,35.735,9.131e4
0.563,1.358,-1.358,209.497,18.47,1.604,0,0.021,-5.566e-6,35.721,9.129e4
0.613,1.643,-1.643,211.697,20.334,1.203,0,0.025,-1.189e-5,35.702,9.127e4
0.663,1.963,-1.964,213.827,22.797,0.573,0,0.028,-3.767e-5,35.682,9.125e4
0.694,2.182,-2.183,215.105,24.617,0.029,0,0.028,-9.549e-4,35.668,9.123e4
0.74,2.541,-2.543,216.547,27.106,0.401,0,-0.028,-7.565e-5,35.646,9.121e4
0.79,2.975,-2.976,218.07,29.741,0.802,0,-0.024,-4.181e-5,35.621,9.118e4
0.84,3.46,-3.462,219.596,32.111,1.089,0,-0.018,-3.083e-5,35.594,9.115e4
0.891,4.002,-4.005,221.199,33.768,1.203,0,-0.009,-2.375e-5,35.565,9.112e4
0.941,4.604,-4.607,222.948,34.294,1.031,0,0.001,-2.532e-5,35.534,9.109e4
0.988,5.232,-5.235,224.749,33.731,0.745,0,0.01,-2.51e-5,35.503,9.105e4
1.038,5.95,-5.954,226.064,32.147,0.401,0,0.017,-3.267e-5,35.468,9.101e4
1.088,6.725,-6.73,227.404,30.021,8.697e-4,0,0.018,-0.006,35.432,9.097e4
1.138,7.553,-7.559,228.689,27.875,0.286,0,-0.017,6.828e-7,35.393,9.093e4
1.188,8.431,-8.438,229.853,26.223,0.516,0,-0.009,7.273e-6,35.353,9.088e4
1.238,9.355,-9.363,230.825,25.762,0.516,0,6.366e-4,7.975e-6,35.31,9.084e4
1.266,9.892,-9.901,231.27,26.153,0.401,0,0.006,7.039e-6,35.285,9.081e4
1.308,10.725,-10.736,232.23,27.571,0.229,0,0.013,1.631e-5,35.247,9.077e4
1.358,11.762,-11.774,233.187,29.989,0.01,0,-0.016,-2.238e-5,35.2,9.072e4
1.408,12.853,-12.866,233.952,32.725,0.286,0,-0.011,-1.208e-5,35.126,9.064e4
1.458,14,-14.015,234.768,33.501,0.286,-5.987e-9,-0.001,-1.389e-5,34.99,9.049e4
1.491,14.79,-14.806,235.277,33.075,0.229,-5.449e-9,0.005,-1.923e-5,34.897,9.039e4
1.541,16.021,-16.04,234.379,31.481,0.057,-9.492e-9,0.011,-1.693e-5,34.753,9.023e4
1.581,17.07,-17.091,233.83,29.627,0.057,-9.63e-9,-0.011,7.086e-6,34.631,9.01e4
1.631,18.411,-18.435,231.094,27.179,0.229,-8.413e-9,-0.003,4.445e-6,34.476,8.994e4
1.641,18.685,-18.709,230.512,26.875,0.286,-8.558e-9,-6.366e-4,5.488e-6,34.445,8.99e4
1.656,19.1,-19.125,230.053,26.829,0.286,-9.207e-9,0.004,6.334e-6,34.397,8.985e4
1.679,19.73,-19.756,229.218,27.553,0.172,-8.212e-9,0.009,4.09e-6,34.324,8.977e4
1.684,19.886,-19.912,229,27.814,0.172,-8.212e-9,0.011,4.99e-6,34.306,8.975e4
1.692,20.12,-20.147,227.502,28.11,0.115,-8.243e-9,0.012,4.962e-6,34.279,8.973e4
1.705,20.475,-20.502,225.244,28.569,0.057,-8.217e-9,0.013,-5.758e-6,34.238,8.968e4
1.716,20.803,-20.831,223.166,28.941,0.021,-8.206e-9,0.014,-3.67e-5,34.2,8.964e4
1.733,21.3,-21.329,222.065,29.772,0.045,-8.196e-9,-0.013,-3.154e-5,34.143,8.958e4
1.759,22.058,-22.089,220.48,30.853,0.115,-7.405e-9,-0.011,-1.388e-5,34.056,8.949e4
1.784,22.822,-22.855,218.973,31.417,0.172,-6.037e-9,-0.006,-1.309e-5,33.969,8.939e4
1.822,23.995,-24.03,215.322,30.704,0.115,-5.069e-9,0.003,-1.359e-5,33.836,8.925e4
1.872,25.585,-25.623,210.796,28.412,0.009,-1.034e-8,0.007,7.834e-5,33.656,8.906e4
1.922,27.225,-27.267,206.264,26.12,0.115,0,-0.004,1.186e-5,33.472,8.886e4
1.938,27.759,-27.803,204.789,25.548,0.115,0,-0.001,8.637e-6,33.412,8.879e4
1.962,28.569,-28.615,202.905,25.56,0.115,0,0.004,5.612e-6,33.321,8.87e4
1.998,29.803,-29.852,199.927,26.851,0.007,0,-0.007,-1.592e-4,33.182,8.855e4
2.048,31.56,-31.613,195.885,27.719,0.115,0,-0.002,-3.514e-5,32.986,8.834e4
2.098,33.366,-33.424,192.063,26.605,0.048,-7.133e-9,0.004,-4.954e-5,32.785,8.812e4
2.138,34.846,-34.908,189.059,24.98,0.026,-8.469e-9,-0.005,-4.194e-5,32.621,8.795e4
2.188,36.734,-36.8,187.08,23.557,0.115,-1.837e-8,6.366e-4,4.639e-6,32.413,8.772e4
2.238,38.663,-38.735,184.753,24.713,0.011,-1.792e-8,0.006,-1.381e-4,32.2,8.749e4
2.288,40.636,-40.713,182.46,25.31,0.029,-1.978e-8,-0.004,-3.259e-5,31.983,8.726e4
2.338,42.653,-42.737,180.194,25.579,0.057,-1.724e-8,-0.001,-4.475e-6,31.761,8.702e4
2.388,44.716,-44.805,178.087,24.926,0.033,-1.25e-8,0.002,2.209e-6,31.536,8.678e4
2.438,46.822,-46.918,176.049,23.59,0.034,-1.41e-8,-0.002,1.008e-5,31.306,8.653e4
2.488,48.97,-49.072,173.941,22.625,0.057,-1.62e-8,0.002,-1.198e-5,31.073,8.628e4
2.491,49.1,-49.202,173.809,22.606,0.057,-1.62e-8,0.002,-1.424e-5,31.059,8.627e4
2.496,49.295,-49.399,173.51,22.576,0.057,-1.622e-8,0.003,-1.324e-5,31.037,8.624e4
2.502,49.589,-49.693,173.054,22.599,0.057,-1.62e-8,0.003,-1.169e-5,31.005,8.621e4
2.512,50.031,-50.137,172.348,22.809,0.057,-1.62e-8,0.004,-6.565e-6,30.957,8.616e4
2.528,50.697,-50.805,171.277,23.197,0.027,-1.638e-8,0.005,-3.013e-5,30.885,8.608e4
2.55,51.704,-51.815,169.659,23.823,0.024,-1.639e-8,-0.005,-8.192e-5,30.776,8.596e4
2.585,53.23,-53.346,167.292,24.223,0.057,-1.827e-8,-0.003,-3.764e-5,30.611,8.579e4
2.6,53.928,-54.046,166.238,24.233,0.057,-1.808e-8,-0.002,-2.211e-5,30.535,8.571e4
2.623,54.983,-55.104,160.214,23.586,0.057,-1.789e-8,3.183e-4,-2.508e-5,30.421,8.559e4
2.658,56.582,-56.709,151.245,22.018,0.057,-1.633e-8,0.004,-4.98e-5,30.249,8.541e4
2.708,58.908,-59.043,138.447,18.999,0.022,-1.628e-8,-0.005,-2.028e-5,29.999,8.515e4
2.758,61.269,-61.412,125.576,16.318,0.057,-1.67e-8,-0.001,3.17e-5,29.745,8.489e4
2.808,63.658,-63.81,112.508,15.09,0.052,-5.755e-9,0.003,-5.411e-6,29.489,8.463e4
2.858,66.074,-66.234,99.313,14.608,0.024,-7.356e-9,-0.004,-9.369e-5,29.23,8.436e4
2.908,68.516,-68.685,86.152,13.626,0.057,-8.392e-9,-9.549e-4,-1.204e-5,28.969,8.409e4
2.919,69.053,-69.224,83.288,13.28,0.057,-8.335e-9,-3.891e-6,-1.421e-5,28.912,8.403e4
2.935,69.861,-70.035,82.448,13.11,0.057,-7.953e-9,0.001,-3.686e-5,28.825,8.394e4
2.96,71.077,-71.256,81.215,12.645,0.049,-8.193e-9,0.003,-2.739e-5,28.696,8.381e4
2.997,72.912,-73.097,79.404,11.654,0.003,-9.037e-9,0.004,-1.592e-4,28.5,8.361e4
3.022,74.166,-74.356,78.18,10.913,0.032,-9.234e-9,-0.004,-5.126e-6,28.367,8.347e4
3.06,76.056,-76.254,71.614,9.487,0.057,-9.003e-9,-0.001,-1.662e-5,28.166,8.326e4
3.11,78.581,-78.789,62.784,8.48,0.057,-1.057e-8,0.002,-1.056e-5,27.897,8.299e4
3.138,80.02,-80.233,57.737,8.226,0.034,-9.672e-9,0.004,-3.123e-5,27.744,8.283e4
3.181,82.186,-82.408,50.894,7.962,0.004,-9.497e-9,-0.004,-4.775e-4,27.514,8.259e4
3.231,84.746,-84.979,42.84,7.814,0.057,-1.234e-8,-0.003,-7.495e-5,27.243,8.231e4
3.281,87.32,-87.563,34.882,7.066,0.057,-2.475e-8,0.001,-2.462e-5,26.97,8.203e4
3.3,88.326,-88.573,31.828,6.474,0.057,-2.51e-8,0.003,-1.762e-5,26.864,8.192e4
3.329,89.837,-90.091,24.59,4.866,0.027,-2.427e-8,0.004,-2.589e-5,26.704,8.176e4
3.373,92.11,-92.373,13.777,2.245,0.051,-2.236e-8,-0.004,8.707e-6,26.464,8.151e4
3.388,92.888,-93.154,10.075,1.411,0.057,-2.242e-8,-0.003,2.569e-6,26.382,8.143e4
3.41,94.055,-94.327,7.072,0.777,0.115,-2.27e-8,-9.549e-4,2.114e-5,26.258,8.13e4
3.441,95.641,-95.92,2.936,0.453,0.057,-2.384e-8,0.002,4.779e-5,26.091,8.113e4
3.487,98.021,-98.31,1.68,1.168,0.019,-2.185e-8,0.004,8.736e-5,25.84,8.087e4
3.537,100.621,-100.923,0.289,2.103,0.056,-1.988e-8,-0.003,5.508e-6,25.565,8.06e4
3.544,100.997,-101.3,0.093,2.195,0.057,-1.988e-8,-0.003,3.207e-8,25.526,8.056e4
3.555,101.56,-101.866,-0.699,2.187,0.057,-1.975e-8,-0.002,-4.31e-6,25.466,8.05e4
3.571,102.406,-102.715,-1.867,2.011,0.057,-1.956e-8,-7.958e-4,5.562e-6,25.377,8.042e4
3.595,103.675,-103.99,-3.591,1.57,0.054,-1.916e-8,7.958e-4,2.107e-5,25.244,8.028e4
3.609,104.383,-104.702,-4.548,1.295,0.044,-1.902e-8,0.001,3.727e-5,25.169,8.021e4
3.629,105.446,-105.77,-9.364,0.399,0.027,-1.934e-8,0.002,5.489e-5,25.057,8.01e4
3.66,107.041,-107.373,-16.559,1.047,0.007,-1.908e-8,-0.003,3.183e-4,24.889,7.993e4
3.688,108.502,-108.841,-23.138,2.361,0.037,-1.9e-8,-0.002,7.162e-5,24.736,7.978e4
3.73,110.691,-111.04,-25.917,3.048,0.057,-1.706e-8,3.183e-4,1.123e-4,24.506,7.955e4
3.778,113.183,-113.545,-29.16,3.167,0.038,-2.416e-8,0.003,1.504e-4,24.244,7.93e4
3.819,115.31,-115.682,-31.864,2.77,0.014,-2.309e-8,-0.004,3.183e-4,24.02,7.907e4
3.853,117.071,-117.452,-35.395,2.612,0.057,-2.18e-8,-0.002,9.586e-5,23.835,7.889e4
3.897,119.346,-119.739,-43.217,3.757,0.052,-2.332e-8,6.366e-4,9.946e-5,23.597,7.866e4
3.947,121.925,-122.331,-48.992,5.611,0.024,-2.016e-8,-0.001,1.491e-4,23.326,7.839e4
3.981,123.674,-124.088,-52.95,6.497,0.05,-1.923e-8,2.072e-5,1.262e-4,23.143,7.821e4
3.997,124.495,-124.914,-53.619,6.644,0.054,-1.931e-8,9.549e-4,1.267e-4,23.057,7.812e4
4.021,125.724,-126.149,-53.43,6.489,0.044,-1.838e-8,0.002,1.577e-4,22.928,7.8e4
4.057,127.563,-127.998,-53.183,5.996,0.01,-1.787e-8,0.003,6.366e-4,22.736,7.78e4
4.107,130.108,-130.557,-52.864,5.154,0.049,-1.459e-8,-0.002,1.324e-4,22.469,7.754e4
4.157,132.643,-133.106,-52.425,5.282,0.037,-5.395e-9,6.366e-4,1.036e-4,22.204,7.728e4
4.207,135.169,-135.646,-51.881,6.28,0.04,-5.989e-9,-3.183e-4,-2.26e-5,21.94,7.702e4
4.257,137.684,-138.175,-51.515,5.9,0.016,0,0.001,-1.15e-4,21.677,7.676e4
4.307,140.189,-140.694,-51.152,5.563,0.006,0,-0.002,-3.183e-4,21.415,7.65e4
4.357,142.684,-143.203,-50.807,5.151,0.034,0,-4.775e-4,-8.279e-5,21.154,7.625e4
4.407,145.169,-145.703,-50.414,5.124,0.031,0,0.002,-4.168e-5,20.895,7.601e4
4.457,147.646,-148.194,-49.974,5.483,0.001,0,-0.002,-1.592e-4,20.637,7.576e4
4.507,150.112,-150.675,-49.561,5.669,0.021,0,-0.002,5.165e-5,20.379,7.552e4
4.557,152.569,-153.146,-49.122,6.142,0.057,-5.26e-9,6.366e-4,3.61e-5,20.123,7.528e4
4.607,155.014,-155.607,-48.802,5.735,0.033,0,0.004,1.449e-5,19.869,7.503e4
4.657,157.45,-158.057,-48.511,5.165,0.011,0,-0.004,-1.326e-4,19.615,7.479e4
4.707,159.876,-160.499,-48.217,4.647,0.05,0,-0.002,-4.517e-5,19.362,7.455e4
4.757,162.294,-162.932,-47.917,4.155,0.057,-6.04e-9,0.002,-3.575e-5,19.111,7.432e4
4.807,164.705,-165.358,-47.44,5.009,0.012,-7.891e-9,0.005,2.293e-5,18.86,7.408e4
4.857,167.106,-167.775,-46.966,5.89,0.057,-7.815e-9,-0.003,1.79e-5,18.611,7.384e4
4.907,169.497,-170.181,-46.545,6.409,0.115,-8.254e-9,0.002,-2.028e-5,18.363,7.361e4
4.957,171.877,-172.577,-46.323,5.433,0.033,0,0.007,-3.619e-5,18.115,7.337e4
5.007,174.248,-174.963,-46.152,4.141,0.057,0,-0.005,-3.532e-5,17.869,7.314e4
5.057,176.61,-177.342,-45.865,3.74,0.115,-7.458e-9,3.183e-4,-1.67e-5,17.624,7.291e4
5.107,178.966,-179.714,-45.409,4.58,0.03,-5.65e-9,0.004,-6.282e-5,17.38,7.268e4
5.157,181.314,-182.078,-44.993,5.121,0.022,-6.056e-9,-0.004,3.856e-5,17.137,7.245e4
5.207,183.653,-184.433,-44.588,5.653,0.057,0,-0.002,1.481e-5,16.895,7.222e4
5.257,185.982,-186.778,-44.266,5.644,0.057,-5.539e-9,0.003,4.345e-5,16.654,7.2e4
5.307,188.301,-189.113,-44.102,4.47,0.023,-8.89e-9,-0.005,-1.792e-5,16.414,7.178e4
5.357,190.612,-191.441,-43.896,3.659,0.115,-7.619e-9,-0.001,-2.375e-5,16.175,7.156e4
5.407,192.916,-193.762,-43.535,3.998,0.057,-6.396e-9,0.004,-1.988e-5,15.937,7.134e4
5.457,195.213,-196.076,-43.107,4.849,0.022,0,-0.005,1.49e-6,15.701,7.113e4
5.507,197.501,-198.381,-42.695,5.658,0.115,0,-7.958e-4,-1.969e-5,15.465,7.092e4
5.557,199.78,-200.676,-42.412,5.545,0.115,5.107e-9,0.005,-3.992e-6,15.23,7.07e4
5.607,202.049,-202.962,-42.264,4.448,0.007,5.559e-9,-0.008,3.183e-4,14.996,7.049e4
5.657,204.309,-205.24,-42.12,3.386,0.115,1.165e-8,-0.004,3.049e-5,14.763,7.028e4
5.707,206.564,-207.512,-41.877,3.005,0.115,3.532e-8,0.003,9.586e-6,14.531,7.007e4
5.757,208.813,-209.779,-41.422,4.16,0.022,4.598e-8,0.008,1.592e-4,14.3,6.986e4
5.807,211.055,-212.038,-40.931,5.684,0.115,4.203e-8,-0.005,4.574e-5,14.069,6.965e4
5.857,213.287,-214.288,-40.664,5.548,0.115,4.678e-8,0.003,1.583e-5,13.84,6.944e4
5.907,215.509,-216.527,-40.553,4.277,5.613e-4,4.894e-8,0.006,0.001,13.612,6.923e4
5.957,217.724,-218.76,-40.425,3.206,0.115,5.295e-8,-0.003,-3.608e-5,13.385,6.903e4
6.007,219.932,-220.986,-40.118,3.461,0.057,4.565e-8,0.002,-2.69e-5,13.158,6.882e4
6.057,222.135,-223.207,-39.781,3.906,0.023,4.6e-8,0.005,1.592e-4,12.933,6.862e4
6.107,224.33,-225.42,-39.373,4.951,0.057,4.227e-8,-0.004,5.534e-5,12.708,6.841e4
6.157,226.517,-227.625,-39.064,5.308,0.115,5.149e-8,0.003,2.776e-5,12.484,6.821e4
6.207,228.694,-229.821,-38.921,4.443,0.033,4.455e-8,0.008,1.592e-4,12.262,6.801e4
6.257,230.864,-232.008,-38.828,3.299,0.057,4.588e-8,-0.006,9.767e-5,12.04,6.782e4
6.307,233.027,-234.191,-38.652,2.771,0.115,4.94e-8,9.25e-5,6.494e-5,11.819,6.762e4
6.357,235.186,-236.368,-38.33,3.238,0.057,4.759e-8,0.007,1.274e-4,11.599,6.743e4
6.407,237.338,-238.539,-37.863,4.842,0.057,5.298e-8,-0.006,9.409e-5,11.379,6.724e4
6.457,239.483,-240.702,-37.603,4.925,0.115,5.93e-8,-2.707e-5,5.419e-5,11.161,6.705e4
6.507,241.618,-242.856,-37.42,4.505,0.057,6.248e-8,0.005,4.191e-5,10.944,6.686e4
6.557,243.746,-245.003,-37.302,3.65,0.021,6.33e-8,-0.006,1.592e-4,10.727,6.667e4
6.607,245.867,-247.143,-37.143,3.131,0.057,6.521e-8,-0.003,4.8e-5,10.511,6.649e4
6.657,247.982,-249.277,-36.924,3.019,0.057,6.347e-8,0.002,5.948e-5,10.296,6.63e4
6.707,250.092,-251.406,-36.593,3.639,0.015,6.045e-8,0.005,3.183e-4,10.082,6.611e4
6.757,252.195,-253.529,-36.243,4.438,0.057,6.522e-8,-0.004,8.652e-5,9.869,6.593e4
6.807,254.291,-255.644,-35.97,4.721,0.115,6.807e-8,0.002,7.846e-5,9.656,6.574e4
6.857,256.378,-257.75,-35.832,4.048,0.032,6.587e-8,0.007,1.592e-4,9.445,6.556e4
6.907,258.458,-259.85,-35.766,2.888,0.057,6.79e-8,-0.005,7.85e-5,9.234,6.538e4
6.957,260.533,-261.945,-35.583,2.578,0.115,6.807e-8,0.001,6.788e-5,9.024,6.52e4
7.007,262.604,-264.035,-35.234,3.431,0.019,6.567e-8,0.006,4.775e-4,8.815,6.501e4
7.057,264.667,-266.118,-34.849,4.607,0.115,6.492e-8,-0.003,1.042e-4,8.606,6.483e4
7.107,266.723,-268.194,-34.636,4.565,0.115,6.938e-8,0.004,8.773e-5,8.399,6.465e4
7.157,268.771,-270.262,-34.539,3.717,0.014,7.802e-8,0.008,6.366e-4,8.192,6.447e4
7.207,270.813,-272.324,-34.53,2.272,0.115,7.838e-8,-0.004,5.212e-5,7.986,6.429e4
7.257,272.85,-274.381,-34.327,2.168,0.115,7.423e-8,0.006,7.803e-5,7.781,6.412e4
7.307,274.883,-276.435,-33.896,3.691,0.022,8.056e-8,-0.009,4.775e-4,7.577,6.394e4
7.357,276.91,-278.481,-33.532,4.843,0.115,8.257e-8,-0.003,9.035e-5,7.373,6.377e4
7.407,278.928,-280.52,-33.383,4.437,0.115,8.566e-8,0.006,8.259e-5,7.17,6.36e4
7.457,280.939,-282.551,-33.387,2.956,0.041,9.061e-8,-0.008,1.296e-4,6.968,6.344e4
7.507,282.944,-284.577,-33.3,2.195,0.115,9.966e-8,-0.002,1.833e-5,6.767,6.327e4
7.557,284.945,-286.598,-33.071,2.387,0.115,1.018e-7,0.006,-1.18e-5,6.566,6.31e4
7.607,286.942,-288.616,-32.668,3.862,0.057,9.686e-8,-0.007,1.733e-5,6.367,6.294e4
7.657,288.931,-290.626,-32.381,4.556,0.115,9.175e-8,-7.184e-5,6.624e-6,6.168,6.277e4
7.707,290.913,-292.629,-32.251,4.128,0.115,9.944e-8,0.008,1.943e-5,5.969,6.261e4
7.757,292.888,-294.625,-32.272,2.662,0.057,1.002e-7,-0.009,-1.95e-5,5.772,6.244e4
7.807,294.858,-296.616,-32.229,1.697,0.172,1.02e-7,-0.001,-2.383e-5,5.575,6.228e4
7.857,296.825,-298.604,-31.95,2.325,0.115,1.026e-7,0.008,4.919e-6,5.379,6.212e4
7.907,298.787,-300.587,-31.511,4.146,0.115,1.025e-7,-0.007,3.189e-5,5.183,6.195e4
7.957,300.742,-302.563,-31.234,4.871,0.172,1.121e-7,0.003,3.154e-5,4.989,6.179e4
8.007,302.689,-304.531,-31.227,3.654,0.053,1.108e-7,0.011,7.331e-5,4.795,6.163e4
8.057,304.629,-306.493,-31.307,1.922,0.115,1.051e-7,-0.009,4.55e-6,4.602,6.147e4
8.107,306.566,-308.451,-31.212,1.396,0.172,1.098e-7,0.003,2.166e-5,4.409,6.131e4
8.157,308.5,-310.407,-30.822,2.87,0.023,1.222e-7,0.01,3.183e-4,4.218,6.115e4
8.207,310.429,-312.357,-30.459,4.215,0.115,1.292e-7,-0.006,5.886e-5,4.026,6.099e4
8.257,312.35,-314.3,-30.205,4.88,0.172,1.301e-7,0.005,6.853e-5,3.836,6.083e4
8.307,314.263,-316.235,-30.277,3.193,0.017,1.256e-7,0.013,4.775e-4,3.646,6.068e4
8.357,316.171,-318.165,-30.393,1.317,0.172,1.309e-7,-0.007,3.164e-5,3.457,6.052e4
8.407,318.076,-320.092,-30.228,1.322,0.172,1.307e-7,0.006,1.521e-5,3.269,6.036e4
8.457,319.978,-322.016,-29.79,3.173,0.022,1.365e-7,-0.012,1.592e-4,3.082,6.021e4
8.507,321.874,-323.934,-29.457,4.407,0.172,1.407e-7,-0.005,3.987e-5,2.895,6.006e4
8.557,323.763,-325.846,-29.367,3.921,0.115,1.318e-7,0.005,5.427e-5,2.709,5.991e4
8.607,325.646,-327.75,-29.355,2.928,0.005,1.271e-7,0.008,7.958e-4,2.523,5.976e4
8.657,327.522,-329.649,-29.314,2.2,0.057,1.285e-7,-0.006,1.184e-5,2.338,5.962e4
8.707,329.395,-331.545,-29.241,1.666,0.115,1.249e-7,0.001,2.916e-6,2.154,5.947e4
8.757,331.265,-333.437,-29.005,2.197,0.057,1.197e-7,0.009,-2.276e-5,1.97,5.932e4
8.807,333.131,-335.325,-28.651,3.606,0.115,1.174e-7,-0.008,1.741e-5,1.788,5.918e4
8.857,334.991,-337.207,-28.444,4.019,0.115,1.233e-7,3.183e-4,8.497e-6,1.605,5.903e4
8.907,336.843,-339.082,-28.383,3.419,0.057,1.142e-7,0.008,-1.684e-5,1.424,5.889e4
8.957,338.69,-340.952,-28.425,2.12,0.057,1.138e-7,-0.008,-5.547e-5,1.243,5.875e4
9.007,340.532,-342.817,-28.364,1.548,0.115,1.15e-7,-6.366e-4,-4.485e-5,1.063,5.86e4
9.057,342.372,-344.68,-28.129,2.132,0.057,1.211e-7,0.006,-7.577e-5,0.883,5.846e4
9.107,344.208,-346.539,-27.803,3.377,0.057,1.218e-7,-0.006,-1.282e-5,0.704,5.832e4
9.157,346.038,-348.391,-27.576,3.971,0.172,1.145e-7,0.002,-5.443e-6,0.526,5.818e4
9.207,347.861,-350.238,-27.593,2.843,0.022,1.133e-7,0.008,-1.159e-4,0.348,5.804e4
9.257,349.679,-352.079,-27.576,2.005,0.057,1.133e-7,-0.006,-7.227e-5,0.171,5.79e4
9.307,351.493,-353.917,-27.532,1.333,0.172,1.062e-7,0.002,-4.015e-5,-0.005,5.776e4
9.357,353.305,-355.752,-27.271,2.115,0.057,1.102e-7,0.009,-9.132e-5,-0.181,5.762e4
9.407,355.113,-357.583,-26.939,3.436,0.115,1.1e-7,-0.007,-1.899e-5,-0.356,5.748e4
9.457,356.915,-359.408,-26.778,3.583,0.115,1.119e-7,4.775e-4,-1.203e-5,-0.531,5.734e4
9.507,358.711,-361.228,-26.708,3.109,0.057,1.08e-7,0.007,-5.12e-5,-0.705,5.72e4
9.557,360.501,-363.041,-26.714,2.135,0.048,1.061e-7,-0.008,-1.334e-4,-0.878,5.706e4
9.607,362.287,-364.852,-26.7,1.316,0.172,1.098e-7,-0.001,-5.098e-5,-1.051,5.692e4
9.657,364.071,-366.659,-26.476,1.906,0.057,1.123e-7,0.005,-6.977e-5,-1.223,5.679e4
9.707,365.852,-368.463,-26.23,2.649,0.025,1.126e-7,-0.007,-1.592e-4,-1.395,5.665e4
9.757,367.628,-370.263,-25.991,3.389,0.115,1.109e-7,-0.003,-3.355e-5,-1.565,5.652e4
9.807,369.397,-372.056,-25.841,3.536,0.172,1.026e-7,0.006,-2.449e-5,-1.736,5.639e4
9.857,371.161,-373.844,-25.86,2.509,0.012,1.055e-7,0.01,-4.775e-4,-1.906,5.626e4
9.907,372.92,-375.627,-25.847,1.769,0.115,1.027e-7,-0.008,-8.631e-5,-2.075,5.613e4
9.957,374.676,-377.407,-25.786,1.337,0.172,9.866e-8,-9.549e-4,-5.075e-5,-2.243,5.6e4
10.007,376.43,-379.185,-25.549,2.073,0.046,9.815e-8,0.004,-6.556e-5,-2.411,5.588e4
10.057,378.179,-380.959,-25.336,2.627,0.033,9.729e-8,-0.005,-4.749e-5,-2.578,5.575e4
10.107,379.924,-382.728,-25.152,3.006,0.115,9.893e-8,-0.001,3.051e-7,-2.745,5.562e4
10.157,381.664,-384.492,-25.067,2.711,0.051,1.022e-7,0.003,-8.252e-6,-2.911,5.55e4
10.207,383.399,-386.252,-25.046,1.989,0.046,1.028e-7,-0.003,-3.086e-5,-3.077,5.537e4
10.257,385.131,-388.008,-24.929,1.951,0.05,1.017e-7,-3.183e-4,-3.941e-5,-3.242,5.525e4
10.307,386.859,-389.76,-24.807,1.929,0.05,1.023e-7,0.003,-5.321e-5,-3.407,5.512e4
10.357,388.583,-391.509,-24.558,2.712,0.057,1.038e-7,-0.002,1.631e-5,-3.57,5.5e4
10.407,390.303,-393.254,-24.427,2.673,0.057,1.052e-7,7.958e-4,-1.986e-6,-3.734,5.487e4
10.457,392.018,-394.993,-24.251,3.007,0.115,1.046e-7,0.006,-2.839e-5,-3.897,5.475e4
10.507,393.728,-396.728,-24.275,1.961,0.04,1.049e-7,-0.007,-1.312e-4,-4.059,5.463e4
10.557,395.434,-398.459,-24.226,1.449,0.115,1.037e-7,-0.004,-5.338e-5,-4.22,5.451e4
10.607,397.137,-400.187,-24.117,1.303,0.115,1.056e-7,0.003,-5.682e-5,-4.382,5.438e4
10.657,398.838,-401.913,-23.855,2.15,0.006,1.021e-7,0.007,-6.366e-4,-4.542,5.426e4
10.707,400.536,-403.635,-23.592,3.05,0.115,1.019e-7,-0.004,3.511e-6,-4.702,5.414e4
10.757,402.227,-405.352,-23.447,3.177,0.172,9.866e-8,0.004,-1.187e-6,-4.862,5.402e4
10.807,403.914,-407.063,-23.405,2.633,0.057,9.648e-8,0.01,-6.747e-5,-5.021,5.39e4
10.857,405.596,-408.77,-23.521,1.051,0.172,9.467e-8,-0.007,-4.759e-5,-5.179,5.378e4
10.907,407.275,-410.475,-23.434,0.82,0.229,9.49e-8,0.002,-2.383e-5,-5.337,5.366e4
10.957,408.954,-412.179,-23.157,1.784,0.05,9.384e-8,0.008,-2.013e-5,-5.494,5.354e4
11.007,410.628,-413.879,-22.835,3.115,0.172,9.557e-8,-0.005,4.455e-5,-5.651,5.342e4
11.057,412.298,-415.574,-22.689,3.274,0.172,9.891e-8,0.003,4.74e-5,-5.807,5.33e4
11.107,413.962,-417.263,-22.688,2.432,0.057,9.774e-8,0.009,1.125e-4,-5.963,5.318e4
11.157,415.621,-418.948,-22.724,1.384,0.115,9.95e-8,-0.008,2.451e-5,-6.118,5.307e4
11.207,417.278,-420.631,-22.679,0.881,0.172,9.365e-8,-0.001,-4.703e-7,-6.273,5.296e4
11.257,418.933,-422.312,-22.49,1.267,0.115,9.28e-8,0.006,5.464e-6,-6.427,5.284e4
11.307,420.586,-423.99,-22.223,2.152,0.027,9.508e-8,-0.008,1.257e-4,-6.581,5.273e4
11.357,422.235,-425.665,-21.968,3.022,0.172,9.244e-8,-0.004,4.835e-5,-6.734,5.262e4
11.407,423.879,-427.335,-21.825,3.176,0.229,8.774e-8,0.005,4.749e-5,-6.887,5.251e4
11.457,425.518,-428.999,-21.864,2.11,0.029,8.44e-8,0.01,1.592e-4,-7.039,5.24e4
11.507,427.152,-430.659,-21.905,1.101,0.172,8.547e-8,-0.008,1.749e-5,-7.19,5.229e4
11.557,428.785,-432.318,-21.86,0.645,0.229,8.779e-8,3.183e-4,7.813e-6,-7.342,5.218e4
11.607,430.416,-433.975,-21.639,1.254,0.115,9.011e-8,0.008,4.743e-5,-7.492,5.207e4
11.657,432.045,-435.63,-21.349,2.341,0.057,9.121e-8,-0.008,1.151e-4,-7.642,5.196e4
11.707,433.67,-437.281,-21.153,2.854,0.172,9.003e-8,-0.003,5.976e-5,-7.792,5.186e4
11.757,435.289,-438.927,-21.064,2.667,0.172,9.594e-8,0.004,5.925e-5,-7.941,5.175e4
11.807,436.905,-440.568,-21.054,1.989,0.03,9.934e-8,0.008,1.592e-4,-8.09,5.164e4
11.857,438.516,-442.206,-21.054,1.279,0.115,9.909e-8,-0.007,2.814e-5,-8.238,5.153e4
11.907,440.126,-443.842,-21.01,0.875,0.172,1.007e-7,-0.001,1.329e-5,-8.386,5.143e4
11.957,441.733,-445.476,-20.884,0.986,0.172,1.051e-7,0.005,2.352e-5,-8.533,5.132e4
12.007,443.339,-447.108,-20.695,1.483,0.051,1.036e-7,0.009,1.005e-4,-8.68,5.121e4
12.057,444.942,-448.738,-20.439,2.481,0.115,1.029e-7,-0.008,6.474e-5,-8.826,5.111e4
12.107,446.541,-450.363,-20.267,2.966,0.229,1.06e-7,6.086e-6,4.961e-5,-8.972,5.1e4
12.157,448.134,-451.983,-20.24,2.469,0.172,1.037e-7,0.007,7.482e-5,-9.117,5.09e4
12.207,449.724,-453.599,-20.252,1.766,0.013,1.044e-7,0.01,6.366e-4,-9.262,5.079e4
12.257,451.31,-455.212,-20.224,1.383,0.057,1.036e-7,-0.01,6.365e-5,-9.407,5.069e4
12.307,452.893,-456.823,-20.23,0.765,0.172,1.028e-7,-0.005,4.412e-6,-9.551,5.058e4
12.357,454.476,-458.432,-20.137,0.757,0.172,1.081e-7,0.002,-9.543e-7,-9.694,5.048e4
12.407,456.056,-460.039,-19.956,1.273,0.057,1.075e-7,0.007,4.375e-5,-9.837,5.038e4
12.457,457.635,-461.645,-19.745,1.996,0.057,1.077e-7,-0.007,9.164e-5,-9.98,5.027e4
12.507,459.21,-463.247,-19.583,2.442,0.172,1.102e-7,-0.003,4.531e-5,-10.122,5.017e4
12.557,460.78,-464.844,-19.464,2.637,0.229,1.117e-7,0.004,3.592e-5,-10.264,5.007e4
12.607,462.346,-466.437,-19.488,1.894,0.057,1.083e-7,0.009,6.737e-5,-10.405,4.996e4
12.657,463.909,-468.027,-19.514,1.187,0.115,1.083e-7,-0.008,1.293e-5,-10.546,4.986e4
12.707,465.47,-469.615,-19.46,1.008,0.115,1.099e-7,-0.004,-1.857e-7,-10.686,4.976e4
12.757,467.028,-471.201,-19.358,1.119,0.115,1.1e-7,-1.592e-4,1.105e-5,-10.826,4.967e4
12.807,468.585,-472.785,-19.241,1.334,0.056,1.094e-7,0.002,2.279e-5,-10.966,4.957e4
12.857,470.139,-474.366,-19.135,1.487,0.019,1.096e-7,0.004,1.119e-4,-11.105,4.947e4
12.907,471.691,-475.945,-18.978,1.988,0.115,1.096e-7,-0.002,5.411e-5,-11.243,4.938e4
12.957,473.239,-477.521,-18.914,1.894,0.057,1.102e-7,3.183e-4,5.508e-5,-11.381,4.928e4
13.007,474.783,-479.093,-18.858,1.776,0.054,1.092e-7,0.003,7.601e-5,-11.519,4.919e4
13.057,476.325,-480.662,-18.832,1.468,0.013,1.093e-7,-0.003,1.592e-4,-11.656,4.909e4
13.107,477.864,-482.229,-18.775,1.369,0.034,1.09e-7,-0.002,5.107e-5,-11.793,4.9e4
13.157,479.4,-483.793,-18.707,1.341,0.04,1.087e-7,-0.001,2.209e-5,-11.93,4.89e4
13.207,480.934,-485.355,-18.673,1.088,0.115,1.084e-7,9.549e-4,1.88e-5,-12.066,4.881e4
13.257,482.466,-486.914,-18.551,1.389,0.023,1.084e-7,0.003,7.913e-5,-12.201,4.872e4
13.307,483.996,-488.472,-18.445,1.596,0.03,1.083e-7,-0.003,9.218e-5,-12.336,4.862e4
13.357,485.523,-490.027,-18.358,1.688,0.056,1.082e-7,-0.001,5.274e-5,-12.471,4.853e4
13.407,487.047,-491.578,-18.252,1.922,0.115,1.098e-7,0.001,4.816e-5,-12.605,4.844e4
13.457,488.567,-493.127,-18.2,1.818,0.115,1.103e-7,0.004,5.755e-5,-12.739,4.834e4
13.507,490.084,-494.672,-18.193,1.437,5.496e-4,1.095e-7,-0.001,0.005,-12.873,4.825e4
13.557,491.599,-496.214,-18.174,1.15,0.057,1.095e-7,-0.005,1.402e-5,-13.006,4.816e4
13.607,493.111,-497.755,-18.14,0.952,0.115,1.092e-7,-0.002,6.005e-7,-13.138,4.807e4
13.657,494.622,-499.294,-18.082,0.889,0.115,1.087e-7,0.002,-1.02e-5,-13.271,4.798e4
13.707,496.131,-500.831,-17.949,1.284,0.031,1.082e-7,0.004,3.363e-5,-13.402,4.789e4
13.757,497.638,-502.366,-17.783,1.758,0.115,1.082e-7,-0.003,4.194e-5,-13.534,4.78e4
13.807,499.142,-503.899,-17.698,1.63,0.057,1.076e-7,-7.958e-4,3.514e-5,-13.665,4.771e4
13.857,500.643,-505.428,-17.612,1.544,0.051,1.075e-7,6.366e-4,3.772e-5,-13.795,4.762e4
13.907,502.141,-506.954,-17.523,1.513,0.046,1.077e-7,0.002,4.534e-5,-13.926,4.753e4
13.957,503.636,-508.478,-17.471,1.251,0.019,1.079e-7,-0.002,3.758e-5,-14.055,4.744e4
14.007,505.129,-510,-17.398,1.141,0.045,1.082e-7,-0.002,2.593e-6,-14.185,4.735e4
14.057,506.62,-511.52,-17.315,1.105,0.052,1.077e-7,-3.183e-4,-1.475e-6,-14.314,4.726e4
14.107,508.11,-513.037,-17.217,1.167,0.032,1.074e-7,7.958e-4,1.04e-5,-14.442,4.717e4
14.157,509.597,-514.553,-17.099,1.37,0.027,1.072e-7,-9.549e-4,4.458e-5,-14.57,4.708e4
14.207,511.081,-516.066,-16.965,1.708,0.115,1.065e-7,9.549e-4,2.761e-5,-14.698,4.699e4
14.257,512.563,-517.577,-16.881,1.734,0.115,1.051e-7,0.004,3.78e-5,-14.826,4.691e4
14.307,514.041,-519.084,-16.895,1.148,0.027,1.056e-7,-0.006,-9.877e-6,-14.953,4.682e4
14.357,515.518,-520.589,-16.853,0.938,0.057,1.058e-7,-0.004,-1.353e-5,-15.079,4.673e4
14.407,516.993,-522.093,-16.798,0.813,0.115,1.052e-7,-0.002,-1.639e-5,-15.205,4.664e4
14.457,518.466,-523.595,-16.727,0.782,0.115,1.057e-7,0.001,-2.015e-5,-15.331,4.656e4
14.507,519.938,-525.096,-16.636,0.862,0.115,1.06e-7,0.004,-8.558e-6,-15.457,4.648e4
14.557,521.408,-526.596,-16.529,1.035,0.042,1.067e-7,0.006,3.611e-5,-15.582,4.639e4
14.607,522.876,-528.093,-16.38,1.501,0.115,1.068e-7,-0.005,3.341e-5,-15.707,4.631e4
14.657,524.342,-529.588,-16.255,1.844,0.229,1.078e-7,-0.002,1.961e-5,-15.831,4.623e4
14.707,525.805,-531.08,-16.173,1.941,0.229,1.095e-7,0.004,2.437e-5,-15.955,4.615e4
14.757,527.264,-532.568,-16.171,1.532,0.115,1.096e-7,0.008,2.193e-5,-16.079,4.607e4
14.807,528.72,-534.054,-16.204,0.944,0.057,1.092e-7,-0.008,-3.907e-5,-16.202,4.599e4
14.857,530.175,-535.538,-16.202,0.592,0.172,1.074e-7,-0.006,-2.118e-5,-16.325,4.591e4
14.907,531.628,-537.021,-16.198,0.243,0.286,1.077e-7,-0.001,-2.667e-5,-16.447,4.583e4
14.957,533.082,-538.504,-16.144,0.164,0.286,1.076e-7,0.005,-3.38e-5,-16.569,4.574e4
15.007,534.534,-539.986,-16.004,0.586,0.172,1.076e-7,0.01,-2.696e-5,-16.691,4.566e4
15.057,535.986,-541.467,-15.801,1.427,0.115,1.078e-7,-0.011,-1.727e-6,-16.812,4.559e4
15.107,537.435,-542.946,-15.643,2.035,0.286,1.069e-7,-0.006,1.307e-5,-16.933,4.551e4
15.157,538.88,-544.421,-15.573,2.102,0.344,1.071e-7,7.958e-4,1.956e-5,-17.054,4.543e4
15.207,540.322,-545.892,-15.538,1.957,0.286,1.068e-7,0.007,1.915e-5,-17.174,4.535e4
15.257,541.761,-547.361,-15.552,1.533,0.172,1.068e-7,0.012,3.328e-5,-17.294,4.527e4
15.307,543.196,-548.826,-15.598,0.943,0.034,1.072e-7,-0.014,6.35e-5,-17.414,4.519e4
15.357,544.63,-550.29,-15.669,0.239,0.286,1.066e-7,-0.01,-1.418e-5,-17.533,4.511e4
15.407,546.064,-551.753,-15.628,0.2,0.286,1.061e-7,-0.005,-7.179e-6,-17.652,4.503e4
15.457,547.497,-553.216,-15.548,0.357,0.229,1.054e-7,3.183e-4,-4.429e-6,-17.77,4.496e4
15.507,548.929,-554.679,-15.439,0.662,0.115,1.051e-7,0.004,8.987e-6,-17.889,4.488e4
15.557,550.36,-556.14,-15.318,1.04,0.004,1.053e-7,-0.005,6.366e-4,-18.006,4.48e4
15.607,551.79,-557.599,-15.248,1.118,0.037,1.052e-7,-0.005,1.089e-4,-18.124,4.472e4
15.657,553.217,-559.057,-15.153,1.367,0.115,1.054e-7,-0.003,4.693e-5,-18.241,4.465e4
15.707,554.642,-560.512,-15.085,1.462,0.172,1.068e-7,-4.775e-4,4.208e-5,-18.358,4.457e4
15.757,556.064,-561.964,-14.988,1.763,0.286,1.08e-7,0.004,4.958e-5,-18.474,4.449e4
15.807,557.484,-563.414,-14.962,1.631,0.229,1.082e-7,0.009,6.092e-5,-18.59,4.442e4
15.857,558.9,-564.861,-14.97,1.322,0.115,1.096e-7,0.012,1.102e-4,-18.706,4.434e4
15.907,560.314,-566.305,-15.024,0.768,0.057,1.097e-7,-0.012,9.546e-5,-18.821,4.426e4
15.957,561.727,-567.748,-15.059,0.345,0.229,1.089e-7,-0.009,1.609e-5,-18.936,4.419e4
16.007,563.138,-569.19,-15.072,0.046,0.344,1.096e-7,-0.004,-3.081e-6,-19.051,4.411e4
16.057,564.55,-570.633,-15.059,0.149,0.401,1.06e-7,0.003,-2.898e-6,-19.165,4.404e4
16.107,565.962,-572.075,-14.925,0.3,0.229,1.057e-7,0.009,6.029e-6,-19.279,4.396e4
16.157,567.374,-573.517,-14.765,0.896,0.023,1.06e-7,0.011,3.183e-4,-19.393,4.389e4
16.207,568.784,-574.958,-14.658,1.214,0.115,1.056e-7,-0.011,8.367e-5,-19.506,4.381e4
16.257,570.191,-576.396,-14.54,1.627,0.286,1.07e-7,-0.007,4.394e-5,-19.619,4.374e4
16.307,571.596,-577.832,-14.48,1.708,0.286,1.054e-7,-0.003,3.675e-5,-19.732,4.367e4
16.357,572.998,-579.264,-14.438,1.704,0.286,1.06e-7,0.003,3.392e-5,-19.844,4.359e4
16.407,574.397,-580.694,-14.462,1.306,0.172,1.065e-7,0.007,3.934e-5,-19.956,4.352e4
16.457,575.793,-582.121,-14.458,1.104,0.057,1.055e-7,0.009,6.24e-5,-20.068,4.345e4
16.507,577.187,-583.547,-14.455,0.911,0.005,1.055e-7,0.01,7.958e-4,-20.179,4.338e4
16.557,578.58,-584.971,-14.49,0.507,0.172,1.058e-7,-0.008,-2.279e-7,-20.29,4.331e4
16.607,579.972,-586.394,-14.486,0.33,0.229,1.071e-7,-0.005,-7.959e-6,-20.401,4.324e4
16.657,581.364,-587.816,-14.477,0.166,0.286,1.082e-7,-9.549e-4,-9.438e-6,-20.511,4.317e4
16.707,582.755,-589.238,-14.438,0.146,0.286,1.081e-7,0.004,-1.012e-5,-20.621,4.311e4
16.757,584.145,-590.66,-14.332,0.488,0.172,1.075e-7,0.008,-1.489e-6,-20.731,4.304e4
16.807,585.535,-592.081,-14.206,0.947,0.037,1.077e-7,-0.009,1.085e-4,-20.84,4.297e4
16.857,586.923,-593.5,-14.09,1.377,0.229,1.078e-7,-0.007,4.423e-5,-20.949,4.29e4
16.907,588.309,-594.917,-14.031,1.49,0.286,1.085e-7,-0.003,4.296e-5,-21.058,4.283e4
16.957,589.692,-596.331,-13.989,1.512,0.286,1.087e-7,0.002,4.48e-5,-21.166,4.276e4
17.007,591.072,-597.743,-13.984,1.328,0.229,1.079e-7,0.006,5.192e-5,-21.274,4.27e4
17.057,592.45,-599.152,-13.976,1.171,0.172,1.079e-7,0.008,6.497e-5,-21.382,4.263e4
17.107,593.826,-600.56,-14.012,0.78,0.02,1.081e-7,-0.009,3.183e-4,-21.489,4.256e4
17.157,595.2,-601.966,-14.061,0.332,0.229,1.079e-7,-0.008,2.962e-7,-21.596,4.25e4
17.207,596.574,-603.371,-14.049,0.222,0.286,1.066e-7,-0.004,-7.137e-6,-21.703,4.243e4
17.257,597.947,-604.776,-14.056,0.012,0.344,1.081e-7,6.366e-4,-1.05e-5,-21.81,4.236e4
17.307,599.321,-606.181,-14.009,0.043,0.344,1.077e-7,0.006,-9.51e-6,-21.916,4.23e4
17.357,600.694,-607.586,-13.938,0.205,0.286,1.069e-7,0.01,2.252e-7,-22.021,4.223e4
17.407,602.067,-608.991,-13.796,0.768,0.005,1.069e-7,0.012,0.001,-22.127,4.216e4
17.457,603.438,-610.394,-13.643,1.435,0.286,1.075e-7,-0.01,5.344e-5,-22.232,4.21e4
17.507,604.807,-611.795,-13.522,1.957,0.573,1.097e-7,-0.004,4.479e-5,-22.337,4.203e4
17.557,606.173,-613.192,-13.491,1.943,0.573,1.128e-7,0.004,4.475e-5,-22.442,4.197e4
17.607,607.535,-614.586,-13.503,1.681,0.458,1.106e-7,0.011,5.286e-5,-22.546,4.19e4
17.657,608.894,-615.977,-13.539,1.293,0.229,1.124e-7,0.015,7.25e-5,-22.65,4.184e4
17.707,610.251,-617.366,-13.58,0.912,0.057,1.13e-7,0.017,1.592e-4,-22.753,4.177e4
17.757,611.606,-618.753,-13.642,0.449,0.172,1.133e-7,-0.017,3.158e-5,-22.857,4.171e4
17.807,612.96,-620.14,-13.751,0.232,0.458,1.128e-7,-0.012,-3.548e-6,-22.96,4.164e4
17.857,614.315,-621.527,-13.776,0.486,0.63,1.132e-7,-0.005,-9.333e-6,-23.062,4.158e4
17.907,615.67,-622.914,-13.752,0.519,0.63,1.099e-7,0.003,-9.618e-6,-23.165,4.151e4
17.957,617.027,-624.303,-13.655,0.226,0.458,1.092e-7,0.01,-8.432e-6,-23.267,4.145e4
18.007,618.383,-625.692,-13.503,0.35,0.172,1.091e-7,0.015,1.881e-5,-23.368,4.139e4
18.057,619.739,-627.08,-13.332,1.065,0.172,1.094e-7,-0.015,8.973e-5,-23.47,4.132e4
18.107,621.093,-628.467,-13.186,1.703,0.516,1.094e-7,-0.011,5.171e-5,-23.571,4.126e4
18.157,622.445,-629.85,-13.115,1.938,0.63,1.081e-7,-0.004,5.015e-5,-23.672,4.12e4
18.207,623.792,-631.231,-13.098,1.866,0.573,1.105e-7,0.004,5.346e-5,-23.772,4.113e4
18.257,625.137,-632.608,-13.132,1.499,0.401,1.116e-7,0.01,6.121e-5,-23.872,4.107e4
18.307,626.479,-633.982,-13.174,1.116,0.229,1.108e-7,0.014,8.843e-5,-23.972,4.101e4
18.357,627.819,-635.354,-13.249,0.584,0.057,1.11e-7,-0.015,1.576e-4,-24.072,4.095e4
18.407,629.157,-636.726,-13.304,0.183,0.286,1.115e-7,-0.012,1.357e-5,-24.171,4.088e4
18.457,630.496,-638.097,-13.296,0.114,0.344,1.114e-7,-0.009,-3.126e-6,-24.27,4.082e4
18.507,631.834,-639.468,-13.277,0.088,0.344,1.104e-7,-0.005,-1.228e-5,-24.369,4.076e4
18.557,633.172,-640.838,-13.269,0.011,0.401,1.094e-7,-6.366e-4,-1.311e-5,-24.467,4.07e4
18.607,634.51,-642.209,-13.267,0.143,0.458,1.092e-7,0.005,-1.49e-5,-24.565,4.064e4
18.657,635.848,-643.58,-13.156,0.253,0.229,1.088e-7,0.009,-8.036e-8,-24.663,4.058e4
18.707,637.186,-644.951,-13.062,0.569,0.057,1.095e-7,0.011,7.299e-5,-24.761,4.053e4
18.757,638.522,-646.32,-12.967,0.905,0.115,1.094e-7,-0.01,8.551e-5,-24.858,4.047e4
18.807,639.857,-647.688,-12.862,1.315,0.344,1.101e-7,-0.007,5.36e-5,-24.955,4.041e4
18.857,641.19,-649.054,-12.772,1.666,0.573,1.087e-7,-0.002,4.954e-5,-25.051,4.035e4
18.907,642.52,-650.417,-12.764,1.564,0.516,1.102e-7,0.004,4.827e-5,-25.148,4.03e4
18.957,643.847,-651.777,-12.766,1.421,0.458,1.093e-7,0.009,5.644e-5,-25.244,4.024e4
19.007,645.171,-653.134,-12.796,1.132,0.286,1.094e-7,0.013,7.195e-5,-25.339,4.018e4
19.057,646.494,-654.49,-12.838,0.798,0.057,1.1e-7,0.015,1.592e-4,-25.435,4.012e4
19.107,647.815,-655.844,-12.916,0.307,0.229,1.099e-7,-0.014,1.811e-5,-25.53,4.007e4
19.157,649.135,-657.198,-12.953,0.039,0.401,1.094e-7,-0.011,-6.01e-6,-25.625,4.001e4
19.207,650.455,-658.552,-12.945,0.021,0.401,1.095e-7,-0.007,-1.244e-5,-25.719,3.996e4
19.257,651.776,-659.905,-12.951,0.15,0.516,1.1e-7,-0.002,-1.419e-5,-25.813,3.99e4
19.307,653.096,-661.259,-12.913,0.091,0.458,1.1e-7,0.003,-9.934e-6,-25.907,3.984e4
19.357,654.417,-662.613,-12.823,0.201,0.286,1.108e-7,0.007,1.083e-6,-26.001,3.979e4
19.407,655.737,-663.967,-12.73,0.515,0.115,1.105e-7,0.009,7.49e-5,-26.094,3.973e4
19.457,657.057,-665.32,-12.624,0.904,0.172,1.104e-7,-0.008,9.549e-5,-26.187,3.968e4
19.507,658.375,-666.671,-12.56,1.101,0.286,1.105e-7,-0.006,6.778e-5,-26.28,3.962e4
19.557,659.69,-668.021,-12.487,1.353,0.458,1.112e-7,-0.002,6.043e-5,-26.373,3.957e4
19.607,661.004,-669.368,-12.484,1.243,0.401,1.115e-7,0.002,6.288e-5,-26.465,3.951e4
19.657,662.315,-670.713,-12.482,1.138,0.344,1.111e-7,0.005,7.046e-5,-26.557,3.946e4
19.707,663.624,-672.055,-12.514,0.865,0.172,1.108e-7,0.008,1.044e-4,-26.648,3.94e4
19.757,664.932,-673.397,-12.525,0.71,0.057,1.111e-7,0.009,1.592e-4,-26.74,3.935e4
19.807,666.238,-674.737,-12.536,0.559,0.042,1.111e-7,-0.009,1.592e-4,-26.831,3.929e4
19.857,667.544,-676.076,-12.535,0.474,0.115,1.113e-7,-0.008,4.493e-5,-26.921,3.924e4
19.907,668.848,-677.415,-12.558,0.273,0.229,1.113e-7,-0.007,1.243e-6,-27.012,3.919e4
19.957,670.152,-678.752,-12.585,0.057,0.401,1.114e-7,-0.004,-4.829e-6,-27.102,3.913e4
20.007,671.456,-680.09,-12.549,0.123,0.344,1.113e-7,-4.775e-4,-1.037e-5,-27.192,3.908e4
20.057,672.76,-681.428,-12.539,0.064,0.344,1.112e-7,0.003,-1.403e-5,-27.282,3.903e4
20.107,674.063,-682.765,-12.48,0.222,0.286,1.113e-7,0.006,-6.474e-6,-27.371,3.897e4
20.157,675.366,-684.102,-12.404,0.466,0.115,1.113e-7,0.007,4.545e-5,-27.46,3.892e4
20.207,676.669,-685.439,-12.34,0.653,0.044,1.113e-7,-0.008,1.592e-4,-27.549,3.887e4
20.257,677.97,-686.774,-12.288,0.792,0.172,1.115e-7,-0.007,7.256e-5,-27.637,3.881e4
20.307,679.269,-688.108,-12.242,0.908,0.229,1.114e-7,-0.005,5.437e-5,-27.725,3.876e4
20.357,680.568,-689.44,-12.218,0.92,0.229,1.119e-7,-0.003,4.773e-5,-27.813,3.871e4
20.407,681.864,-690.77,-12.176,1.026,0.344,1.12e-7,-3.183e-4,4.429e-5,-27.901,3.866e4
20.457,683.158,-692.099,-12.174,0.935,0.286,1.114e-7,0.002,4.506e-5,-27.988,3.861e4
20.507,684.451,-693.426,-12.152,0.946,0.286,1.113e-7,0.005,4.665e-5,-28.075,3.855e4
20.557,685.743,-694.752,-12.171,0.759,0.172,1.113e-7,0.007,6.096e-5,-28.162,3.85e4
20.607,687.032,-696.076,-12.18,0.627,0.055,1.114e-7,0.007,9.86e-5,-28.249,3.845e4
20.657,688.321,-697.399,-12.214,0.375,0.115,1.114e-7,-0.007,-2.106e-7,-28.335,3.84e4
20.707,689.609,-698.722,-12.202,0.351,0.172,1.115e-7,-0.006,-1.787e-5,-28.421,3.835e4
20.757,690.897,-700.044,-12.194,0.305,0.172,1.116e-7,-0.004,-2.597e-5,-28.506,3.83e4
20.807,692.184,-701.365,-12.175,0.311,0.172,1.119e-7,-0.003,-3.47e-5,-28.592,3.825e4
20.857,693.47,-702.686,-12.149,0.345,0.172,1.12e-7,-0.002,-4.367e-5,-28.677,3.82e4
20.907,694.755,-704.006,-12.121,0.386,0.115,1.118e-7,-4.775e-4,-4.45e-5,-28.762,3.814e4
20.957,696.04,-705.326,-12.081,0.485,0.046,1.118e-7,1.592e-4,-4.154e-5,-28.846,3.809e4
21.007,697.324,-706.644,-12.061,0.484,0.043,1.118e-7,4.775e-4,-4.315e-5,-28.931,3.804e4
21.057,698.608,-707.962,-12.044,0.477,0.046,1.118e-7,9.549e-4,-4.985e-5,-29.015,3.799e4
21.107,699.89,-709.279,-11.999,0.598,0.054,1.118e-7,-7.958e-4,6.126e-5,-29.098,3.795e4
21.157,701.171,-710.595,-11.979,0.605,0.057,1.118e-7,-4.775e-4,5.847e-5,-29.182,3.79e4
21.207,702.451,-711.91,-11.927,0.761,0.172,1.117e-7,6.366e-4,5.855e-5,-29.265,3.785e4
21.257,703.73,-713.224,-11.902,0.796,0.229,1.115e-7,0.002,5.894e-5,-29.348,3.781e4
21.307,705.008,-714.536,-11.873,0.851,0.286,1.112e-7,0.004,5.86e-5,-29.43,3.776e4
21.357,706.284,-715.847,-11.883,0.727,0.172,1.11e-7,0.006,7.074e-5,-29.513,3.771e4
21.407,707.558,-717.157,-11.884,0.646,0.115,1.109e-7,0.007,8.504e-5,-29.595,3.767e4
21.457,708.832,-718.465,-11.901,0.496,0.019,1.109e-7,-0.007,1.592e-4,-29.677,3.762e4
21.507,710.104,-719.772,-11.91,0.387,0.115,1.109e-7,-0.007,-2.005e-6,-29.758,3.757e4
21.557,711.376,-721.079,-11.924,0.259,0.229,1.108e-7,-0.005,-1.73e-5,-29.84,3.753e4
21.607,712.647,-722.386,-11.919,0.209,0.286,1.11e-7,-0.004,-2.381e-5,-29.921,3.748e4
21.657,713.918,-723.692,-11.869,0.358,0.115,1.113e-7,-0.002,-3.958e-5,-30.001,3.744e4
21.707,715.188,-724.997,-11.865,0.303,0.172,1.111e-7,-0.001,-3.858e-5,-30.082,3.739e4
21.757,716.458,-726.302,-11.865,0.228,0.229,1.111e-7,4.775e-4,-3.958e-5,-30.162,3.735e4
21.807,717.728,-727.607,-11.867,0.142,0.344,1.113e-7,0.002,-4.374e-5,-30.242,3.73e4
21.857,718.997,-728.911,-11.827,0.232,0.229,1.112e-7,0.004,-4.324e-5,-30.321,3.726e4
21.907,720.265,-730.215,-11.806,0.241,0.229,1.113e-7,0.006,-5.329e-5,-30.401,3.721e4
21.957,721.533,-731.518,-11.752,0.398,0.057,1.111e-7,0.007,-7.315e-5,-30.48,3.717e4
22.007,722.801,-732.821,-11.683,0.628,0.115,1.11e-7,-0.007,3.699e-5,-30.559,3.712e4
22.057,724.067,-734.123,-11.611,0.884,0.401,1.11e-7,-0.005,4.81e-5,-30.637,3.708e4
22.107,725.332,-735.423,-11.572,0.988,0.458,1.114e-7,-0.002,4.919e-5,-30.716,3.703e4
22.157,726.595,-736.721,-11.518,1.171,0.63,1.118e-7,0.001,5.048e-5,-30.794,3.699e4
22.207,727.856,-738.018,-11.483,1.261,0.745,1.119e-7,0.006,5.227e-5,-30.871,3.695e4
22.257,729.115,-739.312,-11.498,1.12,0.63,1.114e-7,0.011,5.386e-5,-30.949,3.69e4
22.307,730.371,-740.604,-11.526,0.925,0.458,1.11e-7,0.014,5.994e-5,-31.026,3.686e4
22.357,731.626,-741.895,-11.571,0.662,0.172,1.11e-7,0.016,8.346e-5,-31.103,3.681e4
22.407,732.88,-743.184,-11.605,0.468,0.007,1.111e-7,-0.016,7.958e-4,-31.18,3.677e4
22.457,734.133,-744.473,-11.657,0.203,0.286,1.11e-7,-0.015,-2.198e-5,-31.256,3.673e4
22.507,735.386,-745.762,-11.714,0.068,0.516,1.111e-7,-0.013,-3.218e-5,-31.332,3.668e4
22.557,736.639,-747.05,-11.734,0.187,0.688,1.112e-7,-0.009,-3.532e-5,-31.408,3.664e4
22.607,737.892,-748.339,-11.726,0.199,0.688,1.111e-7,-0.005,-3.957e-5,-31.484,3.66e4
22.657,739.145,-749.628,-11.735,0.292,0.745,1.108e-7,-6.366e-4,-3.904e-5,-31.559,3.656e4
22.707,740.399,-750.918,-11.718,0.288,0.745,1.103e-7,0.004,-4.055e-5,-31.634,3.651e4
22.757,741.653,-752.208,-11.675,0.195,0.688,1.105e-7,0.008,-3.937e-5,-31.709,3.647e4
22.807,742.908,-753.498,-11.615,0.036,0.516,1.109e-7,0.012,-3.92e-5,-31.784,3.643e4
22.857,744.163,-754.789,-11.511,0.304,0.172,1.108e-7,0.014,-1.845e-5,-31.858,3.639e4
22.907,745.417,-756.079,-11.417,0.625,0.172,1.107e-7,-0.014,7.151e-5,-31.932,3.635e4
22.957,746.67,-757.368,-11.346,0.861,0.458,1.105e-7,-0.012,5.583e-5,-32.006,3.63e4
23.007,747.921,-758.655,-11.283,1.073,0.688,1.108e-7,-0.009,5.091e-5,-32.079,3.626e4
23.057,749.171,-759.941,-11.239,1.208,0.802,1.112e-7,-0.004,5.012e-5,-32.153,3.622e4
23.107,750.418,-761.225,-11.23,1.186,0.802,1.112e-7,4.775e-4,5.101e-5,-32.226,3.618e4
23.157,751.664,-762.506,-11.247,1.045,0.688,1.112e-7,0.005,5.531e-5,-32.298,3.614e4
23.207,752.907,-763.786,-11.259,0.93,0.573,1.112e-7,0.008,5.844e-5,-32.371,3.61e4
23.257,754.149,-765.064,-11.3,0.691,0.286,1.112e-7,0.01,6.957e-5,-32.443,3.606e4
23.307,755.39,-766.341,-11.327,0.523,0.115,1.112e-7,0.012,1.028e-4,-32.515,3.602e4
23.357,756.629,-767.616,-11.344,0.403,0.016,1.112e-7,-0.012,3.183e-4,-32.587,3.598e4
23.407,757.868,-768.892,-11.352,0.326,0.115,1.112e-7,-0.011,-1.414e-6,-32.658,3.593e4
23.457,759.107,-770.166,-11.339,0.337,0.115,1.113e-7,-0.011,-2.414e-5,-32.729,3.589e4
23.507,760.344,-771.44,-11.35,0.252,0.229,1.113e-7,-0.01,-4.163e-5,-32.8,3.585e4
23.557,761.582,-772.714,-11.377,0.104,0.401,1.11e-7,-0.009,-4.348e-5,-32.871,3.581e4
23.607,762.819,-773.987,-11.382,0.044,0.458,1.111e-7,-0.007,-4.326e-5,-32.941,3.577e4
23.657,764.056,-775.261,-11.383,0.009,0.516,1.11e-7,-0.004,-4.566e-5,-33.011,3.573e4
23.707,765.293,-776.534,-11.37,0.007,0.516,1.11e-7,-0.001,-4.789e-5,-33.081,3.57e4
23.757,766.529,-777.808,-11.344,0.048,0.458,1.111e-7,9.549e-4,-4.658e-5,-33.151,3.566e4
23.807,767.766,-779.081,-11.311,0.12,0.344,1.114e-7,0.003,-4.566e-5,-33.22,3.562e4
23.857,769.003,-780.354,-11.261,0.255,0.172,1.115e-7,0.004,-4.173e-5,-33.289,3.558e4
23.907,770.239,-781.627,-11.22,0.361,0.056,1.116e-7,0.005,-2.211e-5,-33.358,3.554e4
23.957,771.475,-782.899,-11.188,0.429,0.036,1.116e-7,-0.005,8.884e-5,-33.427,3.55e4
24.007,772.709,-784.17,-11.151,0.524,0.172,1.116e-7,-0.005,6.124e-5,-33.495,3.546e4
24.057,773.943,-785.441,-11.101,0.674,0.344,1.116e-7,-0.003,5.828e-5,-33.563,3.542e4
24.107,775.176,-786.71,-11.066,0.765,0.458,1.116e-7,-0.001,5.763e-5,-33.631,3.539e4
24.157,776.407,-787.978,-11.046,0.796,0.516,1.119e-7,0.001,5.798e-5,-33.698,3.535e4
24.207,777.637,-789.244,-11.04,0.77,0.516,1.119e-7,0.004,5.787e-5,-33.766,3.531e4
24.257,778.865,-790.509,-11.047,0.695,0.401,1.12e-7,0.006,5.704e-5,-33.833,3.528e4
24.307,780.092,-791.773,-11.057,0.607,0.286,1.118e-7,0.007,6.08e-5,-33.9,3.524e4
24.357,781.318,-793.036,-11.065,0.533,0.229,1.118e-7,0.008,6.201e-5,-33.966,3.521e4
24.407,782.543,-794.298,-11.06,0.514,0.172,1.119e-7,0.009,5.446e-5,-34.032,3.517e4
24.457,783.768,-795.559,-11.084,0.38,0.003,1.118e-7,-0.01,1.592e-4,-34.099,3.514e4
24.507,784.991,-796.82,-11.116,0.223,0.229,1.118e-7,-0.009,-4.493e-5,-34.164,3.51e4
24.557,786.214,-798.08,-11.119,0.178,0.286,1.118e-7,-0.008,-4.962e-5,-34.23,3.506e4
24.607,787.437,-799.34,-11.108,0.181,0.286,1.118e-7,-0.007,-5.704e-5,-34.295,3.503e4
24.657,788.66,-800.599,-11.094,0.196,0.286,1.117e-7,-0.006,-6.24e-5,-34.36,3.499e4
24.707,789.882,-801.858,-11.084,0.196,0.286,1.116e-7,-0.004,-6.435e-5,-34.425,3.496e4
24.757,791.103,-803.117,-11.083,0.161,0.286,1.116e-7,-0.003,-6.333e-5,-34.489,3.493e4
24.807,792.325,-804.375,-11.064,0.19,0.286,1.116e-7,-0.002,-6.31e-5,-34.554,3.489e4
24.857,793.546,-805.634,-11.039,0.239,0.172,1.115e-7,-9.549e-4,-6.417e-5,-34.618,3.486e4
24.907,794.767,-806.891,-11.034,0.217,0.229,1.116e-7,-4.116e-5,-6.377e-5,-34.681,3.482e4
24.957,795.987,-808.149,-11.018,0.233,0.229,1.115e-7,7.958e-4,-6.419e-5,-34.745,3.479e4
25.007,797.207,-809.406,-10.994,0.277,0.115,1.115e-7,0.002,-6.618e-5,-34.808,3.475e4
25.057,798.426,-810.662,-10.966,0.336,0.041,1.115e-7,0.002,-7.679e-5,-34.871,3.472e4
25.107,799.645,-811.918,-10.946,0.366,0.01,1.115e-7,-0.002,-1.081e-5,-34.934,3.469e4
25.157,800.863,-813.173,-10.942,0.34,0.024,1.115e-7,0.002,-1.079e-4,-34.996,3.465e4
25.207,802.08,-814.428,-10.923,0.365,0.021,1.115e-7,-0.002,-1.074e-6,-35.059,3.462e4
25.257,803.297,-815.682,-10.91,0.371,0.036,1.115e-7,-0.002,2.198e-5,-35.121,3.459e4
25.307,804.513,-816.936,-10.877,0.454,0.172,1.116e-7,-0.001,5.039e-5,-35.182,3.455e4
25.357,805.728,-818.188,-10.854,0.498,0.229,1.116e-7,-6.366e-4,5.322e-5,-35.244,3.452e4
25.407,806.943,-819.44,-10.816,0.601,0.401,1.114e-7,6.366e-4,5.293e-5,-35.305,3.449e4
25.457,808.156,-820.691,-10.799,0.625,0.458,1.114e-7,0.002,5.074e-5,-35.366,3.445e4
25.507,809.368,-821.941,-10.785,0.64,0.516,1.113e-7,0.004,5.032e-5,-35.427,3.442e4
25.557,810.579,-823.189,-10.793,0.572,0.401,1.113e-7,0.006,4.896e-5,-35.487,3.439e4
25.607,811.789,-824.437,-10.788,0.558,0.344,1.112e-7,0.007,4.73e-5,-35.548,3.436e4
25.657,812.998,-825.683,-10.798,0.486,0.229,1.113e-7,0.008,4.159e-5,-35.608,3.433e4
25.707,814.207,-826.929,-10.804,0.431,0.172,1.113e-7,0.009,2.959e-5,-35.667,3.429e4
25.757,815.414,-828.174,-10.798,0.423,0.172,1.114e-7,0.01,2.198e-5,-35.727,3.426e4
25.807,816.621,-829.418,-10.81,0.349,0.025,1.114e-7,0.01,-1.592e-4,-35.786,3.423e4
25.857,817.827,-830.662,-10.813,0.312,0.04,1.114e-7,-0.01,-1.592e-4,-35.845,3.42e4
25.907,819.032,-831.905,-10.844,0.178,0.286,1.113e-7,-0.009,-8.403e-5,-35.904,3.417e4
25.957,820.237,-833.148,-10.864,0.085,0.458,1.115e-7,-0.008,-7.555e-5,-35.963,3.413e4
26.007,821.442,-834.39,-10.851,0.102,0.401,1.116e-7,-0.007,-7.574e-5,-36.021,3.41e4
26.057,822.647,-835.633,-10.868,0.02,0.573,1.116e-7,-0.005,-7.34e-5,-36.079,3.407e4
26.107,823.852,-836.875,-10.843,0.071,0.458,1.115e-7,-0.003,-7.366e-5,-36.137,3.404e4
26.157,825.056,-838.118,-10.82,0.114,0.401,1.114e-7,-0.002,-7.214e-5,-36.194,3.401e4
26.207,826.261,-839.36,-10.791,0.178,0.286,1.115e-7,-4.775e-4,-7.265e-5,-36.251,3.398e4
26.257,827.465,-840.602,-10.77,0.214,0.229,1.115e-7,3.183e-4,-7.119e-5,-36.309,3.395e4
26.307,828.668,-841.843,-10.757,0.225,0.172,1.114e-7,9.549e-4,-7.202e-5,-36.365,3.392e4
26.357,829.872,-843.084,-10.733,0.27,0.115,1.114e-7,0.001,-7.48e-5,-36.422,3.389e4
26.407,831.074,-844.325,-10.703,0.336,0.037,1.114e-7,-0.001,5.835e-5,-36.478,3.386e4
26.457,832.277,-845.565,-10.676,0.395,0.172,1.114e-7,-0.001,6.726e-5,-36.534,3.383e4
26.507,833.478,-846.804,-10.655,0.432,0.229,1.113e-7,-4.775e-4,6.807e-5,-36.59,3.38e4
26.557,834.679,-848.043,-10.636,0.465,0.286,1.113e-7,3.183e-4,6.799e-5,-36.646,3.377e4
26.607,835.878,-849.281,-10.622,0.48,0.344,1.113e-7,0.001,6.648e-5,-36.701,3.374e4
26.657,837.077,-850.518,-10.611,0.487,0.344,1.112e-7,0.002,6.61e-5,-36.756,3.371e4
26.707,838.276,-851.754,-10.618,0.435,0.286,1.112e-7,0.003,6.481e-5,-36.811,3.368e4
26.757,839.473,-852.989,-10.623,0.389,0.172,1.112e-7,0.004,6.484e-5,-36.865,3.365e4
26.807,840.669,-854.224,-10.606,0.418,0.229,1.112e-7,0.005,6.363e-5,-36.92,3.362e4
26.857,841.865,-855.458,-10.612,0.372,0.172,1.112e-7,0.005,5.835e-5,-36.974,3.359e4
26.907,843.061,-856.691,-10.61,0.35,0.115,1.112e-7,0.006,5.029e-5,-37.028,3.356e4
26.957,844.255,-857.924,-10.626,0.271,0.052,1.112e-7,-0.006,-1.093e-4,-37.081,3.353e4
27.007,845.449,-859.156,-10.631,0.232,0.115,1.112e-7,-0.006,-8.693e-5,-37.135,3.351e4
27.057,846.643,-860.388,-10.628,0.215,0.172,1.112e-7,-0.005,-8.598e-5,-37.188,3.348e4
27.107,847.836,-861.619,-10.595,0.294,0.004,1.112e-7,0.005,-7.958e-4,-37.241,3.345e4
27.157,849.029,-862.85,-10.584,0.306,0.033,1.112e-7,0.005,-4.738e-5,-37.293,3.342e4
27.207,850.221,-864.081,-10.578,0.297,0.017,1.112e-7,0.005,-1.592e-4,-37.346,3.339e4
27.257,851.413,-865.311,-10.56,0.331,0.115,1.112e-7,0.005,2.734e-5,-37.398,3.336e4
27.307,852.604,-866.54,-10.54,0.368,0.172,1.112e-7,0.005,4.935e-5,-37.45,3.334e4
27.357,853.794,-867.769,-10.538,0.35,0.172,1.112e-7,0.006,4.439e-5,-37.501,3.331e4
27.407,854.984,-868.997,-10.543,0.313,0.057,1.112e-7,0.006,5.362e-6,-37.553,3.328e4
27.457,856.173,-870.224,-10.535,0.314,0.057,1.112e-7,0.006,2.042e-5,-37.604,3.325e4
27.507,857.362,-871.452,-10.531,0.303,0.045,1.112e-7,0.007,4.749e-6,-37.655,3.323e4
27.557,858.55,-872.678,-10.546,0.236,0.115,1.112e-7,-0.006,-1.102e-4,-37.706,3.32e4
27.607,859.737,-873.904,-10.52,0.292,0.023,1.112e-7,0.006,1.092e-5,-37.756,3.317e4
27.657,860.925,-875.13,-10.504,0.316,0.057,1.112e-7,0.006,7.714e-5,-37.806,3.315e4
27.707,862.111,-876.355,-10.481,0.365,0.229,1.112e-7,0.007,8.715e-5,-37.856,3.312e4
27.757,863.297,-877.579,-10.49,0.317,0.115,1.113e-7,0.007,9.621e-5,-37.906,3.309e4
27.807,864.482,-878.803,-10.485,0.31,0.057,1.113e-7,0.007,1.067e-4,-37.956,3.307e4
27.857,865.667,-880.026,-10.49,0.275,0.01,1.113e-7,-0.007,1.278e-4,-38.005,3.304e4
27.907,866.852,-881.249,-10.509,0.201,0.172,1.113e-7,-0.007,-7.296e-5,-38.054,3.301e4
27.957,868.035,-882.472,-10.505,0.193,0.229,1.113e-7,-0.007,-7.361e-5,-38.103,3.299e4
28.007,869.219,-883.694,-10.525,0.117,0.401,1.113e-7,-0.006,-7.729e-5,-38.151,3.296e4
28.057,870.402,-884.916,-10.532,0.078,0.516,1.112e-7,-0.005,-7.951e-5,-38.199,3.294e4
28.107,871.586,-886.138,-10.519,0.095,0.458,1.112e-7,-0.004,-8.066e-5,-38.248,3.291e4
28.157,872.769,-887.359,-10.485,0.168,0.286,1.112e-7,-0.003,-8.033e-5,-38.295,3.289e4
28.207,873.951,-888.581,-10.489,0.137,0.344,1.111e-7,-0.002,-8.101e-5,-38.343,3.286e4
28.257,875.134,-889.802,-10.501,0.082,0.516,1.111e-7,-0.001,-8.107e-5,-38.39,3.284e4
28.307,876.316,-891.023,-10.499,0.067,0.516,1.111e-7,-6.357e-5,-8.087e-5,-38.437,3.281e4
28.357,877.498,-892.244,-10.499,0.045,0.573,1.111e-7,0.001,-8.085e-5,-38.484,3.279e4
28.407,878.68,-893.465,-10.473,0.094,0.458,1.112e-7,0.002,-8.141e-5,-38.531,3.277e4
28.457,879.862,-894.685,-10.45,0.134,0.344,1.111e-7,0.003,-7.947e-5,-38.577,3.274e4
28.507,881.044,-895.906,-10.418,0.2,0.172,1.111e-7,0.004,-6.903e-5,-38.623,3.272e4
28.557,882.225,-897.126,-10.388,0.262,0.04,1.111e-7,-0.004,1.592e-4,-38.669,3.27e4
28.607,883.406,-898.345,-10.361,0.316,0.229,1.111e-7,-0.004,1.061e-4,-38.715,3.267e4
28.657,884.586,-899.565,-10.326,0.393,0.458,1.111e-7,-0.003,9.931e-5,-38.76,3.265e4
28.707,885.766,-900.783,-10.305,0.432,0.573,1.111e-7,-0.002,9.788e-5,-38.805,3.263e4
28.757,886.945,-902.001,-10.267,0.521,0.859,1.112e-7,-4.775e-4,9.707e-5,-38.85,3.26e4
28.807,888.123,-903.217,-10.264,0.511,0.802,1.112e-7,0.001,9.724e-5,-38.895,3.258e4
28.857,889.3,-904.433,-10.261,0.498,0.802,1.112e-7,0.003,9.809e-5,-38.94,3.256e4
28.907,890.476,-905.648,-10.257,0.49,0.802,1.112e-7,0.004,9.936e-5,-38.984,3.254e4
28.957,891.651,-906.862,-10.246,0.502,0.859,1.112e-7,0.006,9.955e-5,-39.028,3.251e4
29.007,892.825,-908.076,-10.239,0.503,0.859,1.112e-7,0.008,9.933e-5,-39.072,3.249e4
29.057,893.999,-909.288,-10.256,0.435,0.63,1.113e-7,0.009,9.844e-5,-39.115,3.247e4
29.107,895.171,-910.5,-10.254,0.424,0.63,1.113e-7,0.01,9.837e-5,-39.158,3.245e4
29.157,896.343,-911.711,-10.263,0.382,0.516,1.113e-7,0.011,9.771e-5,-39.202,3.243e4
29.207,897.514,-912.921,-10.282,0.311,0.286,1.112e-7,0.012,9.304e-5,-39.244,3.24e4
29.257,898.685,-914.13,-10.276,0.313,0.286,1.112e-7,0.012,9.589e-5,-39.287,3.238e4
29.307,899.855,-915.34,-10.291,0.26,0.115,1.112e-7,0.013,8.259e-5,-39.329,3.236e4
29.357,901.025,-916.548,-10.285,0.262,0.115,1.112e-7,0.013,9.213e-5,-39.371,3.234e4
29.407,902.194,-917.757,-10.295,0.222,0.022,1.112e-7,-0.013,-1.592e-4,-39.413,3.232e4
29.457,903.362,-918.964,-10.288,0.227,0.004,1.112e-7,-0.013,-3.183e-4,-39.455,3.23e4
29.507,904.531,-920.172,-10.284,0.225,0.014,1.112e-7,-0.013,-1.468e-4,-39.496,3.228e4
29.557,905.699,-921.379,-10.29,0.198,0.115,1.112e-7,-0.013,-1.15e-4,-39.538,3.225e4
29.607,906.866,-922.586,-10.284,0.198,0.115,1.112e-7,-0.013,-1.144e-4,-39.579,3.223e4
29.657,908.033,-923.792,-10.295,0.161,0.229,1.112e-7,-0.012,-1.137e-4,-39.619,3.221e4
29.707,909.2,-924.998,-10.314,0.103,0.458,1.112e-7,-0.012,-1.141e-4,-39.66,3.219e4
29.757,910.367,-926.204,-10.334,0.044,0.688,1.112e-7,-0.011,-1.146e-4,-39.7,3.217e4
29.807,911.534,-927.41,-10.324,0.059,0.63,1.112e-7,-0.01,-1.168e-4,-39.74,3.215e4
29.857,912.7,-928.616,-10.326,0.041,0.688,1.112e-7,-0.009,-1.172e-4,-39.78,3.213e4
29.907,913.867,-929.821,-10.311,0.064,0.63,1.111e-7,-0.008,-1.187e-4,-39.819,3.211e4
29.957,915.033,-931.027,-10.303,0.07,0.63,1.111e-7,-0.007,-1.197e-4,-39.859,3.209e4
30.007,916.199,-932.232,-10.299,0.068,0.63,1.111e-7,-0.006,-1.21e-4,-39.898,3.207e4
30.057,917.365,-933.438,-10.289,0.076,0.573,1.111e-7,-0.005,-1.22e-4,-39.936,3.205e4
30.107,918.531,-934.643,-10.271,0.106,0.458,1.111e-7,-0.004,-1.234e-4,-39.975,3.203e4
30.157,919.697,-935.848,-10.239,0.163,0.229,1.111e-7,-0.003,-1.301e-4,-40.013,3.201e4
30.207,920.862,-937.053,-10.227,0.178,0.172,1.111e-7,-0.003,-1.369e-4,-40.051,3.199e4
30.257,922.027,-938.257,-10.22,0.18,0.172,1.111e-7,-0.003,-1.405e-4,-40.089,3.197e4
30.307,923.192,-939.461,-10.229,0.146,0.286,1.111e-7,-0.003,-1.335e-4,-40.127,3.195e4
30.357,924.356,-940.665,-10.228,0.133,0.344,1.111e-7,-0.002,-1.329e-4,-40.164,3.194e4
30.407,925.521,-941.869,-10.212,0.155,0.229,1.111e-7,-0.002,-1.363e-4,-40.202,3.192e4
30.457,926.685,-943.072,-10.189,0.193,0.057,1.111e-7,-0.001,-1.592e-4,-40.239,3.19e4
30.507,927.848,-944.275,-10.168,0.228,0.115,1.111e-7,0.001,1.126e-4,-40.275,3.188e4
30.557,929.012,-945.478,-10.154,0.246,0.229,1.111e-7,0.002,1.217e-4,-40.312,3.186e4
30.607,930.174,-946.68,-10.148,0.245,0.229,1.111e-7,0.002,1.224e-4,-40.348,3.184e4
30.657,931.337,-947.882,-10.129,0.276,0.344,1.111e-7,0.002,1.285e-4,-40.384,3.182e4
30.707,932.498,-949.084,-10.121,0.281,0.401,1.111e-7,0.003,1.292e-4,-40.42,3.181e4
30.757,933.66,-950.284,-10.1,0.315,0.573,1.111e-7,0.004,1.326e-4,-40.455,3.179e4
30.807,934.821,-951.485,-10.071,0.368,0.802,1.111e-7,0.004,1.36e-4,-40.491,3.177e4
30.857,935.981,-952.684,-10.035,0.44,1.146,1.111e-7,0.006,1.385e-4,-40.526,3.175e4
30.907,937.14,-953.883,-10.029,0.439,1.146,1.111e-7,0.007,1.386e-4,-40.561,3.173e4
30.957,938.299,-955.081,-10.028,0.429,1.146,1.111e-7,0.009,1.385e-4,-40.595,3.172e4
31.007,939.456,-956.279,-10.029,0.414,1.089,1.111e-7,0.01,1.383e-4,-40.63,3.17e4
31.057,940.613,-957.475,-10.035,0.388,0.974,1.111e-7,0.011,1.371e-4,-40.664,3.168e4
31.107,941.77,-958.671,-10.05,0.345,0.802,1.111e-7,0.012,1.336e-4,-40.698,3.166e4
31.157,942.925,-959.867,-10.059,0.314,0.63,1.111e-7,0.013,1.298e-4,-40.731,3.165e4
31.207,944.081,-961.062,-10.04,0.343,0.802,1.111e-7,0.014,1.367e-4,-40.765,3.163e4
31.257,945.235,-962.256,-10.051,0.31,0.63,1.111e-7,0.015,1.32e-4,-40.798,3.161e4
31.307,946.389,-963.449,-10.057,0.288,0.573,1.111e-7,0.016,1.274e-4,-40.831,3.16e4
31.357,947.543,-964.643,-10.05,0.293,0.573,1.111e-7,0.016,1.311e-4,-40.864,3.158e4
31.407,948.696,-965.835,-10.058,0.268,0.458,1.111e-7,0.017,1.231e-4,-40.896,3.156e4
31.457,949.848,-967.028,-10.079,0.218,0.172,1.111e-7,0.017,5.922e-5,-40.929,3.155e4
31.507,951,-968.219,-10.106,0.156,0.172,1.111e-7,-0.017,-3.183e-4,-40.961,3.153e4
31.557,952.152,-969.411,-10.108,0.145,0.229,1.111e-7,-0.017,-3.183e-4,-40.993,3.151e4
31.607,953.304,-970.602,-10.114,0.128,0.344,1.111e-7,-0.017,-1.592e-4,-41.024,3.15e4
31.657,954.455,-971.793,-10.109,0.132,0.344,1.111e-7,-0.016,-1.592e-4,-41.056,3.148e4
31.707,955.606,-972.984,-10.105,0.133,0.344,1.111e-7,-0.016,-1.592e-4,-41.087,3.147e4
31.757,956.757,-974.175,-10.112,0.113,0.458,1.111e-7,-0.015,-1.592e-4,-41.118,3.145e4
31.807,957.907,-975.365,-10.124,0.085,0.63,1.111e-7,-0.015,-1.592e-4,-41.149,3.143e4
31.857,959.058,-976.555,-10.119,0.088,0.63,1.111e-7,-0.014,-1.592e-4,-41.179,3.142e4
31.907,960.208,-977.746,-10.123,0.075,0.688,1.111e-7,-0.014,-1.592e-4,-41.209,3.14e4
31.957,961.358,-978.936,-10.119,0.075,0.688,1.111e-7,-0.013,-1.592e-4,-41.239,3.139e4
32.007,962.508,-980.125,-10.123,0.061,0.802,1.111e-7,-0.012,-1.592e-4,-41.269,3.137e4
32.057,963.658,-981.315,-10.129,0.045,0.917,1.111e-7,-0.011,-1.592e-4,-41.299,3.136e4
32.107,964.808,-982.505,-10.13,0.037,0.974,1.111e-7,-0.01,-1.592e-4,-41.328,3.134e4
32.157,965.958,-983.695,-10.127,0.035,0.974,1.111e-7,-0.01,-1.592e-4,-41.357,3.133e4
32.207,967.108,-984.884,-10.13,0.024,1.031,1.111e-7,-0.009,-1.592e-4,-41.386,3.131e4
32.257,968.257,-986.074,-10.13,0.016,1.089,1.111e-7,-0.007,-1.592e-4,-41.414,3.13e4
32.307,969.407,-987.263,-10.117,0.031,1.031,1.111e-7,-0.007,-1.592e-4,-41.443,3.128e4
32.357,970.557,-988.453,-10.111,0.033,1.031,1.111e-7,-0.006,-1.592e-4,-41.471,3.127e4
32.407,971.706,-989.642,-10.093,0.055,0.859,1.111e-7,-0.005,-1.592e-4,-41.499,3.126e4
32.457,972.855,-990.831,-10.061,0.099,0.516,1.111e-7,-0.004,-1.592e-4,-41.527,3.124e4
32.507,974.005,-992.02,-10.053,0.104,0.458,1.111e-7,-0.004,-1.592e-4,-41.554,3.123e4
32.557,975.154,-993.209,-10.048,0.104,0.458,1.111e-7,-0.003,-1.592e-4,-41.581,3.121e4
32.607,976.303,-994.398,-10.026,0.131,0.229,1.111e-7,-0.003,-3.183e-4,-41.608,3.12e4
32.657,977.451,-995.587,-9.999,0.17,0.057,1.111e-7,0.003,6.918e-5,-41.635,3.119e4
32.707,978.599,-996.775,-9.99,0.175,0.115,1.111e-7,0.003,1.321e-4,-41.661,3.117e4
32.757,979.747,-997.963,-9.977,0.189,0.286,1.111e-7,0.003,1.592e-4,-41.688,3.116e4
32.807,980.895,-999.151,-9.964,0.202,0.401,1.111e-7,0.004,1.592e-4,-41.714,3.115e4
32.857,982.042,-1000.338,-9.93,0.251,0.802,1.111e-7,0.004,1.592e-4,-41.74,3.113e4
32.907,983.189,-1001.525,-9.923,0.255,0.859,1.111e-7,0.005,1.592e-4,-41.765,3.112e4
32.957,984.336,-1002.711,-9.917,0.257,0.917,1.111e-7,0.005,1.592e-4,-41.791,3.111e4
33.007,985.482,-1003.897,-9.907,0.266,0.974,1.111e-7,0.006,1.592e-4,-41.816,3.109e4
33.057,986.627,-1005.083,-9.884,0.296,1.261,1.111e-7,0.007,1.592e-4,-41.841,3.108e4
33.107,987.772,-1006.267,-9.882,0.292,1.261,1.111e-7,0.008,1.592e-4,-41.866,3.107e4
33.157,988.916,-1007.452,-9.871,0.302,1.375,1.111e-7,0.009,1.592e-4,-41.89,3.106e4
33.207,990.06,-1008.636,-9.877,0.285,1.261,1.111e-7,0.01,1.592e-4,-41.914,3.104e4
