# Time (s),Position East of launch (ft),Position North of launch (ft),Vertical acceleration (ft/s²),Lateral acceleration (ft/s²),Angle of attack (°),Roll rate (r/s),Pitch rate (r/s),Yaw rate (r/s),Air temperature (°F),Air pressure (mbar)
0,0,0,0,0,86.001,0,0,0,96.465,913.9
0.009,0,0,0,0,86.001,0,0,0,96.465,913.9
0.019,1.579e-4,-1.579e-4,161.319,13.396,83.537,0,0,0,96.465,913.9
0.029,0.001,-0.001,353.005,26.795,74.656,0,0,0,96.463,913.9
0.039,0.003,-0.003,545.02,38.11,60.848,0,0,0,96.463,913.9
0.044,0.007,-0.007,641.017,44.823,53.228,0,0,0,96.463,913.9
0.051,0.013,-0.013,627.359,43.868,43.602,0,0,0,96.463,913.9
0.063,0.023,-0.023,606.378,42.402,33.747,0,0,0,96.463,913.9
0.073,0.036,-0.036,617.267,43.163,27.96,0,0,0,96.463,913.9
0.078,0.043,-0.043,622.717,43.543,25.726,0,0,0,96.463,913.9
0.086,0.056,-0.056,610.42,42.684,22.918,0,0,0,96.462,913.9
0.094,0.072,-0.072,596.467,41.709,20.397,0,0,0,96.462,913.9
0.104,0.095,-0.095,606.709,42.425,18.048,0,0,0,96.462,913.9
0.109,0.108,-0.108,611.837,42.785,17.017,0,0,0,96.46,913.9
0.117,0.128,-0.128,602.224,42.113,15.699,0,0,0,96.46,913.9
0.125,0.154,-0.154,591.316,41.348,14.381,0,0,0,96.458,913.9
0.135,0.184,-0.184,593.602,41.509,13.121,0,0,0,96.458,913.9
0.147,0.226,-0.226,596.355,41.703,11.86,0,0,0,96.456,913.9
0.157,0.266,-0.266,595.633,41.65,10.943,0,0,0,96.454,913.9
0.167,0.305,-0.305,594.908,41.601,10.084,0,0,0,96.453,913.9
0.177,0.351,-0.351,594.18,41.549,9.339,0,0,0,96.451,913.9
0.187,0.397,-0.397,593.448,41.499,8.652,0,0,0,96.449,913.8
0.194,0.433,-0.433,592.936,41.463,8.251,0,0,0,96.447,913.8
0.204,0.482,-0.482,595.154,41.617,7.678,0,0,0,96.445,913.8
0.214,0.538,-0.538,597.375,41.772,7.219,0,0,0,96.444,913.8
0.224,0.597,-0.597,599.6,41.929,6.818,0,0,0,96.442,913.8
0.234,0.656,-0.656,601.804,42.372,6.417,0,0,0,96.44,913.8
0.249,0.755,-0.755,605.151,42.549,5.901,0,4.775e-4,-2.769e-8,96.436,913.8
0.272,0.912,-0.912,610.174,42.897,5.214,0,0.001,-6.275e-8,96.429,913.7
0.305,1.178,-1.178,617.717,43.57,4.412,0,0.003,-3.493e-7,96.42,913.7
0.35,1.585,-1.585,627.736,44.587,3.953,0,0.005,-5.901e-7,96.404,913.6
0.4,2.113,-2.113,648.94,47.707,2.922,0,0.008,-1.528e-6,96.384,913.4
0.428,2.448,-2.448,660.86,49.564,2.636,0,0.01,-2.217e-6,96.372,913.4
0.47,2.999,-2.999,669.144,52.129,2.349,0,0.013,-2.478e-6,96.352,913.2
0.52,3.74,-3.74,678.953,56.158,1.948,0,0.017,-4.638e-6,96.323,913.1
0.563,4.455,-4.455,687.326,60.597,1.604,0,0.021,-5.566e-6,96.298,912.9
0.613,5.39,-5.39,694.544,66.713,1.203,0,0.025,-1.189e-5,96.264,912.7
0.663,6.44,-6.444,701.532,74.793,0.573,0,0.028,-3.767e-5,96.228,912.5
0.694,7.159,-7.162,705.725,80.764,0.029,0,0.028,-9.549e-4,96.202,912.3
0.74,8.337,-8.343,710.456,88.93,0.401,0,-0.028,-7.565e-5,96.163,912.1
0.79,9.76,-9.764,715.453,97.575,0.802,0,-0.024,-4.181e-5,96.118,911.8
0.84,11.352,-11.358,720.459,105.351,1.089,0,-0.018,-3.083e-5,96.069,911.5
0.891,13.13,-13.14,725.719,110.787,1.203,0,-0.009,-2.375e-5,96.017,911.2
0.941,15.105,-15.115,731.457,112.513,1.031,0,0.001,-2.532e-5,95.961,910.9
0.988,17.165,-17.175,737.365,110.666,0.745,0,0.01,-2.51e-5,95.905,910.5
1.038,19.521,-19.534,741.68,105.469,0.401,0,0.017,-3.267e-5,95.842,910.1
1.088,22.064,-22.08,746.076,98.494,8.697e-4,0,0.018,-0.006,95.778,909.7
1.138,24.78,-24.8,750.292,91.453,0.286,0,-0.017,6.828e-7,95.707,909.3
1.188,27.661,-27.684,754.111,86.033,0.516,0,-0.009,7.273e-6,95.635,908.8
1.238,30.692,-30.719,757.3,84.521,0.516,0,6.366e-4,7.975e-6,95.558,908.4
1.266,32.454,-32.484,758.76,85.804,0.401,0,0.006,7.039e-6,95.513,908.1
1.308,35.187,-35.223,761.909,90.456,0.229,0,0.013,1.631e-5,95.445,907.7
1.358,38.589,-38.629,765.049,98.389,0.01,0,-0.016,-2.238e-5,95.36,907.2
1.408,42.169,-42.211,767.559,107.365,0.286,0,-0.011,-1.208e-5,95.227,906.4
1.458,45.932,-45.981,770.236,109.911,0.286,-5.987e-9,-0.001,-1.389e-5,94.982,904.9
1.491,48.524,-48.576,771.906,108.514,0.229,-5.449e-9,0.005,-1.923e-5,94.815,903.9
1.541,52.562,-52.625,768.96,103.284,0.057,-9.492e-9,0.011,-1.693e-5,94.555,902.3
1.581,56.004,-56.073,767.159,97.201,0.057,-9.63e-9,-0.011,7.086e-6,94.336,901
1.631,60.404,-60.482,758.182,89.17,0.229,-8.413e-9,-0.003,4.445e-6,94.057,899.4
1.641,61.302,-61.381,756.273,88.173,0.286,-8.558e-9,-6.366e-4,5.488e-6,94.001,899
1.656,62.664,-62.746,754.767,88.022,0.286,-9.207e-9,0.004,6.334e-6,93.915,898.5
1.679,64.731,-64.816,752.028,90.397,0.172,-8.212e-9,0.009,4.09e-6,93.783,897.7
1.684,65.243,-65.328,751.312,91.253,0.172,-8.212e-9,0.011,4.99e-6,93.751,897.5
1.692,66.01,-66.099,746.398,92.224,0.115,-8.243e-9,0.012,4.962e-6,93.702,897.3
1.705,67.175,-67.264,738.99,93.73,0.057,-8.217e-9,0.013,-5.758e-6,93.628,896.8
1.716,68.251,-68.343,732.172,94.951,0.021,-8.206e-9,0.014,-3.67e-5,93.56,896.4
1.733,69.882,-69.977,728.56,97.677,0.045,-8.196e-9,-0.013,-3.154e-5,93.457,895.8
1.759,72.369,-72.47,723.36,101.224,0.115,-7.405e-9,-0.011,-1.388e-5,93.301,894.9
1.784,74.875,-74.984,718.415,103.074,0.172,-6.037e-9,-0.006,-1.309e-5,93.144,893.9
1.822,78.724,-78.839,706.437,100.735,0.115,-5.069e-9,0.003,-1.359e-5,92.905,892.5
1.872,83.94,-84.065,691.588,93.215,0.009,-1.034e-8,0.007,7.834e-5,92.581,890.6
1.922,89.321,-89.459,676.719,85.696,0.115,0,-0.004,1.186e-5,92.25,888.6
1.938,91.073,-91.217,671.88,83.819,0.115,0,-0.001,8.637e-6,92.142,887.9
1.962,93.73,-93.881,665.699,83.858,0.115,0,0.004,5.612e-6,91.978,887
1.998,97.779,-97.94,655.928,88.094,0.007,0,-0.007,-1.592e-4,91.728,885.5
2.048,103.543,-103.717,642.667,90.942,0.115,0,-0.002,-3.514e-5,91.375,883.4
2.098,109.469,-109.659,630.128,87.287,0.048,-7.133e-9,0.004,-4.954e-5,91.013,881.2
2.138,114.324,-114.528,620.272,81.955,0.026,-8.469e-9,-0.005,-4.194e-5,90.718,879.5
2.188,120.518,-120.735,613.78,77.287,0.115,-1.837e-8,6.366e-4,4.639e-6,90.343,877.2
2.238,126.847,-127.083,606.145,81.079,0.011,-1.792e-8,0.006,-1.381e-4,89.96,874.9
2.288,133.32,-133.573,598.622,83.038,0.029,-1.978e-8,-0.004,-3.259e-5,89.569,872.6
2.338,139.938,-140.213,591.188,83.921,0.057,-1.724e-8,-0.001,-4.475e-6,89.17,870.2
2.388,146.706,-146.998,584.275,81.778,0.033,-1.25e-8,0.002,2.209e-6,88.765,867.8
2.438,153.615,-153.93,577.589,77.395,0.034,-1.41e-8,-0.002,1.008e-5,88.351,865.3
2.488,160.663,-160.997,570.673,74.229,0.057,-1.62e-8,0.002,-1.198e-5,87.931,862.8
2.491,161.089,-161.424,570.24,74.167,0.057,-1.62e-8,0.002,-1.424e-5,87.906,862.7
2.496,161.729,-162.07,569.259,74.068,0.057,-1.622e-8,0.003,-1.324e-5,87.867,862.4
2.502,162.694,-163.035,567.762,74.144,0.057,-1.62e-8,0.003,-1.169e-5,87.809,862.1
2.512,164.144,-164.491,565.446,74.833,0.057,-1.62e-8,0.004,-6.565e-6,87.723,861.6
2.528,166.329,-166.683,561.932,76.106,0.027,-1.638e-8,0.005,-3.013e-5,87.593,860.8
2.55,169.633,-169.997,556.624,78.159,0.024,-1.639e-8,-0.005,-8.192e-5,87.397,859.6
2.585,174.639,-175.02,548.858,79.472,0.057,-1.827e-8,-0.003,-3.764e-5,87.1,857.9
2.6,176.929,-177.316,545.4,79.505,0.057,-1.808e-8,-0.002,-2.211e-5,86.963,857.1
2.623,180.39,-180.787,525.636,77.382,0.057,-1.789e-8,3.183e-4,-2.508e-5,86.758,855.9
2.658,185.636,-186.053,496.211,72.238,0.057,-1.633e-8,0.004,-4.98e-5,86.448,854.1
2.708,193.268,-193.711,454.222,62.333,0.022,-1.628e-8,-0.005,-2.028e-5,85.998,851.5
2.758,201.014,-201.483,411.995,53.537,0.057,-1.67e-8,-0.001,3.17e-5,85.541,848.9
2.808,208.852,-209.35,369.121,49.508,0.052,-5.755e-9,0.003,-5.411e-6,85.08,846.3
2.858,216.778,-217.303,325.83,47.927,0.024,-7.356e-9,-0.004,-9.369e-5,84.614,843.6
2.908,224.79,-225.344,282.651,44.705,0.057,-8.392e-9,-9.549e-4,-1.204e-5,84.144,840.9
2.919,226.552,-227.113,273.255,43.57,0.057,-8.335e-9,-3.891e-6,-1.421e-5,84.042,840.3
2.935,229.203,-229.774,270.499,43.012,0.057,-7.953e-9,0.001,-3.686e-5,83.885,839.4
2.96,233.192,-233.78,266.453,41.486,0.049,-8.193e-9,0.003,-2.739e-5,83.653,838.1
2.997,239.213,-239.82,260.512,38.235,0.003,-9.037e-9,0.004,-1.592e-4,83.3,836.1
3.022,243.327,-243.95,256.496,35.804,0.032,-9.234e-9,-0.004,-5.126e-6,83.061,834.7
3.06,249.528,-250.177,234.954,31.125,0.057,-9.003e-9,-0.001,-1.662e-5,82.699,832.6
3.11,257.812,-258.494,205.984,27.822,0.057,-1.057e-8,0.002,-1.056e-5,82.215,829.9
3.138,262.533,-263.232,189.426,26.988,0.034,-9.672e-9,0.004,-3.123e-5,81.939,828.3
3.181,269.639,-270.367,166.975,26.122,0.004,-9.497e-9,-0.004,-4.775e-4,81.525,825.9
3.231,278.038,-278.802,140.551,25.636,0.057,-1.234e-8,-0.003,-7.495e-5,81.037,823.1
3.281,286.483,-287.28,114.442,23.182,0.057,-2.475e-8,0.001,-2.462e-5,80.546,820.3
3.3,289.783,-290.594,104.423,21.24,0.057,-2.51e-8,0.003,-1.762e-5,80.355,819.2
3.329,294.741,-295.574,80.676,15.965,0.027,-2.427e-8,0.004,-2.589e-5,80.067,817.6
3.373,302.198,-303.061,45.2,7.365,0.051,-2.236e-8,-0.004,8.707e-6,79.635,815.1
3.388,304.751,-305.623,33.054,4.629,0.057,-2.242e-8,-0.003,2.569e-6,79.488,814.3
3.41,308.579,-309.472,23.202,2.549,0.115,-2.27e-8,-9.549e-4,2.114e-5,79.264,813
3.441,313.783,-314.698,9.633,1.486,0.057,-2.384e-8,0.002,4.779e-5,78.964,811.3
3.487,321.591,-322.539,5.512,3.832,0.019,-2.185e-8,0.004,8.736e-5,78.512,808.7
3.537,330.121,-331.112,0.948,6.9,0.056,-1.988e-8,-0.003,5.508e-6,78.017,806
3.544,331.355,-332.349,0.305,7.201,0.057,-1.988e-8,-0.003,3.207e-8,77.947,805.6
3.555,333.202,-334.206,-2.293,7.175,0.057,-1.975e-8,-0.002,-4.31e-6,77.839,805
3.571,335.978,-336.991,-6.125,6.598,0.057,-1.956e-8,-7.958e-4,5.562e-6,77.679,804.2
3.595,340.141,-341.175,-11.781,5.151,0.054,-1.916e-8,7.958e-4,2.107e-5,77.439,802.8
3.609,342.464,-343.51,-14.921,4.249,0.044,-1.902e-8,0.001,3.727e-5,77.304,802.1
3.629,345.951,-347.014,-30.722,1.309,0.027,-1.934e-8,0.002,5.489e-5,77.103,801
3.66,351.184,-352.274,-54.327,3.435,0.007,-1.908e-8,-0.003,3.183e-4,76.8,799.3
3.688,355.978,-357.09,-75.912,7.746,0.037,-1.9e-8,-0.002,7.162e-5,76.525,797.8
3.73,363.159,-364.304,-85.03,10,0.057,-1.706e-8,3.183e-4,1.123e-4,76.111,795.5
3.778,371.335,-372.523,-95.669,10.39,0.038,-2.416e-8,0.003,1.504e-4,75.639,793
3.819,378.314,-379.534,-104.541,9.088,0.014,-2.309e-8,-0.004,3.183e-4,75.236,790.7
3.853,384.091,-385.341,-116.125,8.57,0.057,-2.18e-8,-0.002,9.586e-5,74.903,788.9
3.897,391.555,-392.844,-141.788,12.326,0.052,-2.332e-8,6.366e-4,9.946e-5,74.475,786.6
3.947,400.016,-401.348,-160.735,18.409,0.024,-2.016e-8,-0.001,1.491e-4,73.987,783.9
3.981,405.755,-407.113,-173.72,21.316,0.05,-1.923e-8,2.072e-5,1.262e-4,73.657,782.1
3.997,408.448,-409.823,-175.915,21.798,0.054,-1.931e-8,9.549e-4,1.267e-4,73.503,781.2
4.021,412.48,-413.875,-175.295,21.289,0.044,-1.838e-8,0.002,1.577e-4,73.27,780
4.057,418.514,-419.941,-174.485,19.672,0.01,-1.787e-8,0.003,6.366e-4,72.925,778
4.107,426.864,-428.337,-173.438,16.909,0.049,-1.459e-8,-0.002,1.324e-4,72.444,775.4
4.157,435.18,-436.699,-171.998,17.329,0.037,-5.395e-9,6.366e-4,1.036e-4,71.967,772.8
4.207,443.468,-445.033,-170.213,20.604,0.04,-5.989e-9,-3.183e-4,-2.26e-5,71.492,770.2
4.257,451.719,-453.33,-169.012,19.357,0.016,0,0.001,-1.15e-4,71.019,767.6
4.307,459.938,-461.594,-167.822,18.251,0.006,0,-0.002,-3.183e-4,70.547,765
4.357,468.123,-469.826,-166.69,16.9,0.034,0,-4.775e-4,-8.279e-5,70.077,762.5
4.407,476.276,-478.028,-165.4,16.811,0.031,0,0.002,-4.168e-5,69.611,760.1
4.457,484.403,-486.201,-163.957,17.989,0.001,0,-0.002,-1.592e-4,69.147,757.6
4.507,492.493,-494.341,-162.602,18.599,0.021,0,-0.002,5.165e-5,68.682,755.2
4.557,500.554,-502.448,-161.161,20.151,0.057,-5.26e-9,6.366e-4,3.61e-5,68.221,752.8
4.607,508.576,-510.522,-160.112,18.816,0.033,0,0.004,1.449e-5,67.764,750.3
4.657,516.568,-518.56,-159.157,16.946,0.011,0,-0.004,-1.326e-4,67.307,747.9
4.707,524.528,-526.572,-158.192,15.246,0.05,0,-0.002,-4.517e-5,66.852,745.5
4.757,532.461,-534.554,-157.208,13.632,0.057,-6.04e-9,0.002,-3.575e-5,66.4,743.2
4.807,540.371,-542.513,-155.643,16.434,0.012,-7.891e-9,0.005,2.293e-5,65.948,740.8
4.857,548.248,-550.443,-154.088,19.324,0.057,-7.815e-9,-0.003,1.79e-5,65.5,738.4
4.907,556.093,-558.337,-152.707,21.027,0.115,-8.254e-9,0.002,-2.028e-5,65.053,736.1
4.957,563.901,-566.198,-151.978,17.825,0.033,0,0.007,-3.619e-5,64.607,733.7
5.007,571.68,-574.026,-151.417,13.586,0.057,0,-0.005,-3.532e-5,64.164,731.4
5.057,579.429,-581.831,-150.476,12.27,0.115,-7.458e-9,3.183e-4,-1.67e-5,63.723,729.1
5.107,587.159,-589.613,-148.98,15.026,0.03,-5.65e-9,0.004,-6.282e-5,63.284,726.8
5.157,594.862,-597.369,-147.615,16.801,0.022,-6.056e-9,-0.004,3.856e-5,62.847,724.5
5.207,602.536,-605.095,-146.286,18.547,0.057,0,-0.002,1.481e-5,62.411,722.2
5.257,610.177,-612.789,-145.23,18.517,0.057,-5.539e-9,0.003,4.345e-5,61.977,720
5.307,617.785,-620.449,-144.692,14.665,0.023,-8.89e-9,-0.005,-1.792e-5,61.545,717.8
5.357,625.367,-628.087,-144.016,12.005,0.115,-7.619e-9,-0.001,-2.375e-5,61.115,715.6
5.407,632.927,-635.702,-142.831,13.117,0.057,-6.396e-9,0.004,-1.988e-5,60.687,713.4
5.457,640.463,-643.294,-141.427,15.909,0.022,0,-0.005,1.49e-6,60.262,711.3
5.507,647.969,-650.856,-140.075,18.563,0.115,0,-7.958e-4,-1.969e-5,59.837,709.2
5.557,655.446,-658.386,-139.147,18.192,0.115,5.107e-9,0.005,-3.992e-6,59.414,707
5.607,662.89,-665.886,-138.661,14.593,0.007,5.559e-9,-0.008,3.183e-4,58.993,704.9
5.657,670.305,-673.36,-138.189,11.109,0.115,1.165e-8,-0.004,3.049e-5,58.573,702.8
5.707,677.703,-680.814,-137.392,9.859,0.115,3.532e-8,0.003,9.586e-6,58.156,700.7
5.757,685.082,-688.251,-135.899,13.648,0.022,4.598e-8,0.008,1.592e-4,57.74,698.6
5.807,692.438,-695.663,-134.288,18.648,0.115,4.203e-8,-0.005,4.574e-5,57.324,696.5
5.857,699.76,-703.045,-133.412,18.202,0.115,4.678e-8,0.003,1.583e-5,56.912,694.4
5.907,707.051,-710.39,-133.048,14.032,5.613e-4,4.894e-8,0.006,0.001,56.502,692.3
5.957,714.318,-717.717,-132.628,10.518,0.115,5.295e-8,-0.003,-3.608e-5,56.093,690.3
6.007,721.562,-725.02,-131.621,11.355,0.057,4.565e-8,0.002,-2.69e-5,55.684,688.2
6.057,728.789,-732.306,-130.515,12.815,0.023,4.6e-8,0.005,1.592e-4,55.279,686.2
6.107,735.991,-739.567,-129.177,16.243,0.057,4.227e-8,-0.004,5.534e-5,54.874,684.1
6.157,743.166,-746.801,-128.163,17.415,0.115,5.149e-8,0.003,2.776e-5,54.471,682.1
6.207,750.308,-754.006,-127.694,14.577,0.033,4.455e-8,0.008,1.592e-4,54.072,680.1
6.257,757.428,-761.181,-127.388,10.823,0.057,4.588e-8,-0.006,9.767e-5,53.672,678.2
6.307,764.524,-768.343,-126.811,9.091,0.115,4.94e-8,9.25e-5,6.494e-5,53.274,676.2
6.357,771.608,-775.486,-125.755,10.623,0.057,4.759e-8,0.007,1.274e-4,52.878,674.3
6.407,778.668,-782.608,-124.222,15.886,0.057,5.298e-8,-0.006,9.409e-5,52.482,672.4
6.457,785.705,-789.705,-123.369,16.158,0.115,5.93e-8,-2.707e-5,5.419e-5,52.09,670.5
6.507,792.71,-796.772,-122.769,14.78,0.057,6.248e-8,0.005,4.191e-5,51.699,668.6
6.557,799.692,-803.816,-122.382,11.975,0.021,6.33e-8,-0.006,1.592e-4,51.309,666.7
6.607,806.65,-810.837,-121.86,10.272,0.057,6.521e-8,-0.003,4.8e-5,50.92,664.9
6.657,813.589,-817.838,-121.142,9.905,0.057,6.347e-8,0.002,5.948e-5,50.533,663
6.707,820.512,-824.823,-120.056,11.939,0.015,6.045e-8,0.005,3.183e-4,50.148,661.1
6.757,827.411,-831.788,-118.907,14.56,0.057,6.522e-8,-0.004,8.652e-5,49.764,659.3
6.807,834.288,-838.727,-118.012,15.489,0.115,6.807e-8,0.002,7.846e-5,49.381,657.4
6.857,841.135,-845.636,-117.559,13.281,0.032,6.587e-8,0.007,1.592e-4,49.001,655.6
6.907,847.959,-852.526,-117.343,9.475,0.057,6.79e-8,-0.005,7.85e-5,48.621,653.8
6.957,854.767,-859.4,-116.742,8.458,0.115,6.807e-8,0.001,6.788e-5,48.243,652
7.007,861.562,-866.257,-115.597,11.257,0.019,6.567e-8,0.006,4.775e-4,47.867,650.1
7.057,868.33,-873.091,-114.334,15.115,0.115,6.492e-8,-0.003,1.042e-4,47.491,648.3
7.107,875.075,-879.902,-113.635,14.977,0.115,6.938e-8,0.004,8.773e-5,47.118,646.5
7.157,881.795,-886.686,-113.317,12.195,0.014,7.802e-8,0.008,6.366e-4,46.746,644.7
7.207,888.494,-893.451,-113.287,7.454,0.115,7.838e-8,-0.004,5.212e-5,46.375,642.9
7.257,895.177,-900.2,-112.621,7.113,0.115,7.423e-8,0.006,7.803e-5,46.006,641.2
7.307,901.847,-906.939,-111.207,12.11,0.022,8.056e-8,-0.009,4.775e-4,45.639,639.4
7.357,908.497,-913.652,-110.013,15.889,0.115,8.257e-8,-0.003,9.035e-5,45.271,637.7
7.407,915.118,-920.341,-109.524,14.557,0.115,8.566e-8,0.006,8.259e-5,44.906,636
7.457,921.716,-927.005,-109.537,9.698,0.041,9.061e-8,-0.008,1.296e-4,44.542,634.4
7.507,928.294,-933.652,-109.252,7.201,0.115,9.966e-8,-0.002,1.833e-5,44.181,632.7
7.557,934.859,-940.282,-108.501,7.831,0.115,1.018e-7,0.006,-1.18e-5,43.819,631
7.607,941.411,-946.903,-107.178,12.671,0.057,9.686e-8,-0.007,1.733e-5,43.461,629.4
7.657,947.936,-953.497,-106.237,14.948,0.115,9.175e-8,-7.184e-5,6.624e-6,43.102,627.7
7.707,954.439,-960.069,-105.81,13.543,0.115,9.944e-8,0.008,1.943e-5,42.744,626.1
7.757,960.919,-966.617,-105.879,8.734,0.057,1.002e-7,-0.009,-1.95e-5,42.39,624.4
7.807,967.382,-973.15,-105.738,5.568,0.172,1.02e-7,-0.001,-2.383e-5,42.035,622.8
7.857,973.835,-979.672,-104.823,7.628,0.115,1.026e-7,0.008,4.919e-6,41.682,621.2
7.907,980.272,-986.178,-103.383,13.602,0.115,1.025e-7,-0.007,3.189e-5,41.329,619.5
7.957,986.686,-992.661,-102.474,15.981,0.172,1.121e-7,0.003,3.154e-5,40.98,617.9
8.007,993.074,-999.117,-102.451,11.988,0.053,1.108e-7,0.011,7.331e-5,40.631,616.3
8.057,999.439,-1005.554,-102.713,6.306,0.115,1.051e-7,-0.009,4.55e-6,40.284,614.7
8.107,1005.794,-1011.978,-102.402,4.58,0.172,1.098e-7,0.003,2.166e-5,39.936,613.1
8.157,1012.139,-1018.396,-101.122,9.416,0.023,1.222e-7,0.01,3.183e-4,39.592,611.5
8.207,1018.468,-1024.793,-99.931,13.829,0.115,1.292e-7,-0.006,5.886e-5,39.247,609.9
8.257,1024.77,-1031.168,-99.098,16.01,0.172,1.301e-7,0.005,6.853e-5,38.905,608.3
8.307,1031.047,-1037.516,-99.334,10.476,0.017,1.256e-7,0.013,4.775e-4,38.563,606.8
8.357,1037.306,-1043.848,-99.715,4.321,0.172,1.309e-7,-0.007,3.164e-5,38.223,605.2
8.407,1043.556,-1050.171,-99.173,4.337,0.172,1.307e-7,0.006,1.521e-5,37.884,603.6
8.457,1049.797,-1056.483,-97.736,10.41,0.022,1.365e-7,-0.012,1.592e-4,37.548,602.1
8.507,1056.017,-1062.776,-96.644,14.459,0.172,1.407e-7,-0.005,3.987e-5,37.211,600.6
8.557,1062.215,-1069.049,-96.348,12.864,0.115,1.318e-7,0.005,5.427e-5,36.876,599.1
8.607,1068.392,-1075.295,-96.309,9.606,0.005,1.271e-7,0.008,7.958e-4,36.541,597.6
8.657,1074.547,-1081.526,-96.175,7.218,0.057,1.285e-7,-0.006,1.184e-5,36.208,596.2
8.707,1080.692,-1087.746,-95.935,5.466,0.115,1.249e-7,0.001,2.916e-6,35.877,594.7
8.757,1086.827,-1093.953,-95.161,7.208,0.057,1.197e-7,0.009,-2.276e-5,35.546,593.2
8.807,1092.949,-1100.148,-93.999,11.831,0.115,1.174e-7,-0.008,1.741e-5,35.218,591.8
8.857,1099.052,-1106.322,-93.32,13.186,0.115,1.233e-7,3.183e-4,8.497e-6,34.889,590.3
8.907,1105.128,-1112.474,-93.12,11.217,0.057,1.142e-7,0.008,-1.684e-5,34.563,588.9
8.957,1111.188,-1118.609,-93.258,6.955,0.057,1.138e-7,-0.008,-5.547e-5,34.237,587.5
9.007,1117.231,-1124.728,-93.058,5.079,0.115,1.15e-7,-6.366e-4,-4.485e-5,33.913,586
9.057,1123.268,-1130.84,-92.287,6.995,0.057,1.211e-7,0.006,-7.577e-5,33.589,584.6
9.107,1129.291,-1136.939,-91.217,11.079,0.057,1.218e-7,-0.006,-1.282e-5,33.267,583.2
9.157,1135.295,-1143.015,-90.472,13.028,0.172,1.145e-7,0.002,-5.443e-6,32.947,581.8
9.207,1141.276,-1149.075,-90.528,9.327,0.022,1.133e-7,0.008,-1.159e-4,32.626,580.4
9.257,1147.241,-1155.115,-90.472,6.578,0.057,1.133e-7,-0.006,-7.227e-5,32.308,579
9.307,1153.192,-1161.145,-90.328,4.373,0.172,1.062e-7,0.002,-4.015e-5,31.991,577.6
9.357,1159.137,-1167.165,-89.472,6.939,0.057,1.102e-7,0.009,-9.132e-5,31.674,576.2
9.407,1165.069,-1173.173,-88.383,11.273,0.115,1.1e-7,-0.007,-1.899e-5,31.359,574.8
9.457,1170.981,-1179.16,-87.854,11.755,0.115,1.119e-7,4.775e-4,-1.203e-5,31.044,573.4
9.507,1176.873,-1185.131,-87.625,10.2,0.057,1.08e-7,0.007,-5.12e-5,30.731,572
9.557,1182.746,-1191.079,-87.644,7.005,0.048,1.061e-7,-0.008,-1.334e-4,30.42,570.6
9.607,1188.606,-1197.021,-87.598,4.318,0.172,1.098e-7,-0.001,-5.098e-5,30.108,569.2
9.657,1194.459,-1202.949,-86.864,6.253,0.057,1.123e-7,0.005,-6.977e-5,29.799,567.9
9.707,1200.302,-1208.868,-86.056,8.691,0.025,1.126e-7,-0.007,-1.592e-4,29.489,566.5
9.757,1206.129,-1214.774,-85.272,11.119,0.115,1.109e-7,-0.003,-3.355e-5,29.183,565.2
9.807,1211.932,-1220.656,-84.78,11.601,0.172,1.026e-7,0.006,-2.449e-5,28.875,563.9
9.857,1217.72,-1226.522,-84.843,8.232,0.012,1.055e-7,0.01,-4.775e-4,28.569,562.6
9.907,1223.491,-1232.372,-84.8,5.804,0.115,1.027e-7,-0.008,-8.631e-5,28.265,561.3
9.957,1229.252,-1238.212,-84.6,4.386,0.172,9.866e-8,-9.549e-4,-5.075e-5,27.963,560
10.007,1235.007,-1244.045,-83.822,6.801,0.046,9.815e-8,0.004,-6.556e-5,27.66,558.8
10.057,1240.745,-1249.865,-83.123,8.619,0.033,9.729e-8,-0.005,-4.749e-5,27.36,557.5
10.107,1246.47,-1255.669,-82.52,9.862,0.115,9.893e-8,-0.001,3.051e-7,27.059,556.2
10.157,1252.178,-1261.457,-82.241,8.894,0.051,1.022e-7,0.003,-8.252e-6,26.76,555
10.207,1257.871,-1267.231,-82.172,6.526,0.046,1.028e-7,-0.003,-3.086e-5,26.461,553.7
10.257,1263.553,-1272.992,-81.788,6.401,0.05,1.017e-7,-3.183e-4,-3.941e-5,26.164,552.5
10.307,1269.222,-1278.74,-81.388,6.329,0.05,1.023e-7,0.003,-5.321e-5,25.867,551.2
10.357,1274.879,-1284.478,-80.571,8.898,0.057,1.038e-7,-0.002,1.631e-5,25.574,550
10.407,1280.522,-1290.203,-80.141,8.77,0.057,1.052e-7,7.958e-4,-1.986e-6,25.279,548.7
10.457,1286.148,-1295.909,-79.564,9.865,0.115,1.046e-7,0.006,-2.839e-5,24.985,547.5
10.507,1291.759,-1301.601,-79.642,6.434,0.04,1.049e-7,-0.007,-1.312e-4,24.694,546.3
10.557,1297.356,-1307.28,-79.482,4.754,0.115,1.037e-7,-0.004,-5.338e-5,24.404,545.1
10.607,1302.943,-1312.949,-79.124,4.275,0.115,1.056e-7,0.003,-5.682e-5,24.112,543.8
10.657,1308.524,-1318.612,-78.264,7.054,0.006,1.021e-7,0.007,-6.366e-4,23.824,542.6
10.707,1314.094,-1324.262,-77.402,10.007,0.115,1.019e-7,-0.004,3.511e-6,23.536,541.4
10.757,1319.642,-1329.895,-76.926,10.423,0.172,9.866e-8,0.004,-1.187e-6,23.248,540.2
10.807,1325.177,-1335.509,-76.788,8.638,0.057,9.648e-8,0.01,-6.747e-5,22.962,539
10.857,1330.696,-1341.109,-77.169,3.448,0.172,9.467e-8,-0.007,-4.759e-5,22.678,537.8
10.907,1336.204,-1346.703,-76.883,2.69,0.229,9.49e-8,0.002,-2.383e-5,22.393,536.6
10.957,1341.713,-1352.293,-75.974,5.853,0.05,9.384e-8,0.008,-2.013e-5,22.111,535.4
11.007,1347.205,-1357.871,-74.918,10.22,0.172,9.557e-8,-0.005,4.455e-5,21.828,534.2
11.057,1352.684,-1363.432,-74.439,10.741,0.172,9.891e-8,0.003,4.74e-5,21.547,533
11.107,1358.143,-1368.973,-74.436,7.979,0.057,9.774e-8,0.009,1.125e-4,21.267,531.8
11.157,1363.586,-1374.501,-74.554,4.541,0.115,9.95e-8,-0.008,2.451e-5,20.988,530.7
11.207,1369.022,-1380.023,-74.406,2.89,0.172,9.365e-8,-0.001,-4.703e-7,20.709,529.6
11.257,1374.452,-1385.538,-73.786,4.157,0.115,9.28e-8,0.006,5.464e-6,20.431,528.4
11.307,1379.875,-1391.043,-72.91,7.06,0.027,9.508e-8,-0.008,1.257e-4,20.154,527.3
11.357,1385.285,-1396.539,-72.073,9.915,0.172,9.244e-8,-0.004,4.835e-5,19.879,526.2
11.407,1390.679,-1402.018,-71.604,10.42,0.229,8.774e-8,0.005,4.749e-5,19.603,525.1
11.457,1396.056,-1407.477,-71.732,6.923,0.029,8.44e-8,0.01,1.592e-4,19.33,524
11.507,1401.417,-1412.923,-71.867,3.612,0.172,8.547e-8,-0.008,1.749e-5,19.058,522.9
11.557,1406.775,-1418.366,-71.719,2.116,0.229,8.779e-8,3.183e-4,7.813e-6,18.784,521.8
11.607,1412.126,-1423.802,-70.994,4.114,0.115,9.011e-8,0.008,4.743e-5,18.514,520.7
11.657,1417.47,-1429.232,-70.043,7.68,0.057,9.121e-8,-0.008,1.151e-4,18.244,519.6
11.707,1422.802,-1434.649,-69.4,9.364,0.172,9.003e-8,-0.003,5.976e-5,17.974,518.6
11.757,1428.114,-1440.049,-69.108,8.75,0.172,9.594e-8,0.004,5.925e-5,17.706,517.5
11.807,1433.415,-1445.433,-69.075,6.526,0.03,9.934e-8,0.008,1.592e-4,17.438,516.4
11.857,1438.701,-1450.807,-69.075,4.196,0.115,9.909e-8,-0.007,2.814e-5,17.172,515.3
11.907,1443.983,-1456.175,-68.93,2.871,0.172,1.007e-7,-0.001,1.329e-5,16.905,514.3
11.957,1449.255,-1461.535,-68.517,3.235,0.172,1.051e-7,0.005,2.352e-5,16.641,513.2
12.007,1454.524,-1466.89,-67.897,4.865,0.051,1.036e-7,0.009,1.005e-4,16.376,512.1
12.057,1459.783,-1472.238,-67.057,8.14,0.115,1.029e-7,-0.008,6.474e-5,16.113,511.1
12.107,1465.03,-1477.569,-66.493,9.731,0.229,1.06e-7,6.086e-6,4.961e-5,15.85,510
12.157,1470.256,-1482.884,-66.404,8.1,0.172,1.037e-7,0.007,7.482e-5,15.589,509
12.207,1475.472,-1488.186,-66.444,5.794,0.013,1.044e-7,0.01,6.366e-4,15.328,507.9
12.257,1480.676,-1493.478,-66.352,4.537,0.057,1.036e-7,-0.01,6.365e-5,15.067,506.9
12.307,1485.869,-1498.763,-66.371,2.51,0.172,1.028e-7,-0.005,4.412e-6,14.808,505.8
12.357,1491.063,-1504.042,-66.066,2.484,0.172,1.081e-7,0.002,-9.543e-7,14.551,504.8
12.407,1496.247,-1509.314,-65.472,4.177,0.057,1.075e-7,0.007,4.375e-5,14.293,503.8
12.457,1501.427,-1514.583,-64.78,6.549,0.057,1.077e-7,-0.007,9.164e-5,14.036,502.7
12.507,1506.594,-1519.839,-64.249,8.012,0.172,1.102e-7,-0.003,4.531e-5,13.78,501.7
12.557,1511.745,-1525.079,-63.858,8.652,0.229,1.117e-7,0.004,3.592e-5,13.525,500.7
12.607,1516.883,-1530.305,-63.937,6.214,0.057,1.083e-7,0.009,6.737e-5,13.271,499.6
12.657,1522.011,-1535.522,-64.022,3.894,0.115,1.083e-7,-0.008,1.293e-5,13.017,498.6
12.707,1527.133,-1540.732,-63.845,3.307,0.115,1.099e-7,-0.004,-1.857e-7,12.765,497.6
12.757,1532.244,-1545.935,-63.51,3.671,0.115,1.1e-7,-1.592e-4,1.105e-5,12.513,496.7
12.807,1537.352,-1551.132,-63.127,4.377,0.056,1.094e-7,0.002,2.279e-5,12.261,495.7
12.857,1542.451,-1556.319,-62.779,4.879,0.019,1.096e-7,0.004,1.119e-4,12.011,494.7
12.907,1547.543,-1561.499,-62.264,6.522,0.115,1.096e-7,-0.002,5.411e-5,11.763,493.8
12.957,1552.621,-1566.67,-62.054,6.214,0.057,1.102e-7,3.183e-4,5.508e-5,11.514,492.8
13.007,1557.687,-1571.827,-61.87,5.827,0.054,1.092e-7,0.003,7.601e-5,11.266,491.9
13.057,1562.746,-1576.975,-61.785,4.816,0.013,1.093e-7,-0.003,1.592e-4,11.019,490.9
13.107,1567.795,-1582.116,-61.598,4.491,0.034,1.09e-7,-0.002,5.107e-5,10.773,490
13.157,1572.835,-1587.247,-61.375,4.4,0.04,1.087e-7,-0.001,2.209e-5,10.526,489
13.207,1577.867,-1592.372,-61.263,3.57,0.115,1.084e-7,9.549e-4,1.88e-5,10.281,488.1
13.257,1582.894,-1597.487,-60.863,4.557,0.023,1.084e-7,0.003,7.913e-5,10.038,487.2
13.307,1587.913,-1602.598,-60.515,5.236,0.03,1.083e-7,-0.003,9.218e-5,9.795,486.2
13.357,1592.923,-1607.7,-60.23,5.538,0.056,1.082e-7,-0.001,5.274e-5,9.552,485.3
13.407,1597.923,-1612.789,-59.882,6.306,0.115,1.098e-7,0.001,4.816e-5,9.311,484.4
13.457,1602.91,-1617.871,-59.711,5.965,0.115,1.103e-7,0.004,5.755e-5,9.07,483.4
13.507,1607.887,-1622.94,-59.688,4.715,5.496e-4,1.095e-7,-0.001,0.005,8.829,482.5
13.557,1612.858,-1627.999,-59.626,3.773,0.057,1.095e-7,-0.005,1.402e-5,8.589,481.6
13.607,1617.818,-1633.054,-59.514,3.123,0.115,1.092e-7,-0.002,6.005e-7,8.352,480.7
13.657,1622.776,-1638.104,-59.324,2.917,0.115,1.087e-7,0.002,-1.02e-5,8.112,479.8
13.707,1627.726,-1643.146,-58.888,4.213,0.031,1.082e-7,0.004,3.363e-5,7.876,478.9
13.757,1632.671,-1648.182,-58.343,5.768,0.115,1.082e-7,-0.003,4.194e-5,7.639,478
13.807,1637.605,-1653.212,-58.064,5.348,0.057,1.076e-7,-7.958e-4,3.514e-5,7.403,477.1
13.857,1642.53,-1658.228,-57.782,5.066,0.051,1.075e-7,6.366e-4,3.772e-5,7.169,476.2
13.907,1647.444,-1663.235,-57.49,4.964,0.046,1.077e-7,0.002,4.534e-5,6.933,475.3
13.957,1652.349,-1668.235,-57.32,4.104,0.019,1.079e-7,-0.002,3.758e-5,6.701,474.4
14.007,1657.247,-1673.228,-57.08,3.743,0.045,1.082e-7,-0.002,2.593e-6,6.467,473.5
14.057,1662.139,-1678.215,-56.808,3.625,0.052,1.077e-7,-3.183e-4,-1.475e-6,6.235,472.6
14.107,1667.028,-1683.192,-56.486,3.829,0.032,1.074e-7,7.958e-4,1.04e-5,6.004,471.7
14.157,1671.906,-1688.166,-56.099,4.495,0.027,1.072e-7,-9.549e-4,4.458e-5,5.774,470.8
14.207,1676.775,-1693.13,-55.659,5.604,0.115,1.065e-7,9.549e-4,2.761e-5,5.544,469.9
14.257,1681.637,-1698.087,-55.384,5.689,0.115,1.051e-7,0.004,3.78e-5,5.313,469.1
14.307,1686.486,-1703.031,-55.43,3.766,0.027,1.056e-7,-0.006,-9.877e-6,5.085,468.2
14.357,1691.332,-1707.969,-55.292,3.077,0.057,1.058e-7,-0.004,-1.353e-5,4.858,467.3
14.407,1696.171,-1712.904,-55.112,2.667,0.115,1.052e-7,-0.002,-1.639e-5,4.631,466.4
14.457,1701.004,-1717.831,-54.879,2.566,0.115,1.057e-7,0.001,-2.015e-5,4.404,465.6
14.507,1705.833,-1722.756,-54.58,2.828,0.115,1.06e-7,0.004,-8.558e-6,4.177,464.8
14.557,1710.656,-1727.677,-54.229,3.396,0.042,1.067e-7,0.006,3.611e-5,3.952,463.9
14.607,1715.472,-1732.589,-53.74,4.925,0.115,1.068e-7,-0.005,3.341e-5,3.727,463.1
14.657,1720.282,-1737.493,-53.33,6.05,0.229,1.078e-7,-0.002,1.961e-5,3.504,462.3
14.707,1725.082,-1742.388,-53.061,6.368,0.229,1.095e-7,0.004,2.437e-5,3.281,461.5
14.757,1729.869,-1747.27,-53.054,5.026,0.115,1.096e-7,0.008,2.193e-5,3.058,460.7
14.807,1734.646,-1752.146,-53.163,3.097,0.057,1.092e-7,-0.008,-3.907e-5,2.836,459.9
14.857,1739.419,-1757.014,-53.156,1.942,0.172,1.074e-7,-0.006,-2.118e-5,2.615,459.1
14.907,1744.186,-1761.88,-53.143,0.797,0.286,1.077e-7,-0.001,-2.667e-5,2.395,458.3
14.957,1748.957,-1766.745,-52.966,0.538,0.286,1.076e-7,0.005,-3.38e-5,2.176,457.4
15.007,1753.72,-1771.608,-52.507,1.923,0.172,1.076e-7,0.01,-2.696e-5,1.956,456.6
15.057,1758.484,-1776.467,-51.841,4.682,0.115,1.078e-7,-0.011,-1.727e-6,1.738,455.9
15.107,1763.238,-1781.319,-51.322,6.677,0.286,1.069e-7,-0.006,1.307e-5,1.521,455.1
15.157,1767.979,-1786.158,-51.093,6.896,0.344,1.071e-7,7.958e-4,1.956e-5,1.303,454.3
15.207,1772.71,-1790.984,-50.978,6.421,0.286,1.068e-7,0.007,1.915e-5,1.087,453.5
15.257,1777.431,-1795.804,-51.024,5.03,0.172,1.068e-7,0.012,3.328e-5,0.871,452.7
15.307,1782.139,-1800.61,-51.175,3.094,0.034,1.072e-7,-0.014,6.35e-5,0.655,451.9
15.357,1786.844,-1805.413,-51.407,0.784,0.286,1.066e-7,-0.01,-1.418e-5,0.441,451.1
15.407,1791.549,-1810.213,-51.273,0.656,0.286,1.061e-7,-0.005,-7.179e-6,0.226,450.3
15.457,1796.25,-1815.013,-51.01,1.171,0.229,1.054e-7,3.183e-4,-4.429e-6,0.014,449.6
15.507,1800.948,-1819.813,-50.653,2.172,0.115,1.051e-7,0.004,8.987e-6,-0.2,448.8
15.557,1805.643,-1824.606,-50.256,3.412,0.004,1.053e-7,-0.005,6.366e-4,-0.411,448
15.607,1810.335,-1829.393,-50.026,3.668,0.037,1.052e-7,-0.005,1.089e-4,-0.623,447.2
15.657,1815.016,-1834.177,-49.715,4.485,0.115,1.054e-7,-0.003,4.693e-5,-0.834,446.5
15.707,1819.692,-1838.95,-49.491,4.797,0.172,1.068e-7,-4.775e-4,4.208e-5,-1.044,445.7
15.757,1824.357,-1843.714,-49.173,5.784,0.286,1.08e-7,0.004,4.958e-5,-1.253,444.9
15.807,1829.016,-1848.471,-49.088,5.351,0.229,1.082e-7,0.009,6.092e-5,-1.462,444.2
15.857,1833.661,-1853.219,-49.114,4.337,0.115,1.096e-7,0.012,1.102e-4,-1.671,443.4
15.907,1838.301,-1857.956,-49.291,2.52,0.057,1.097e-7,-0.012,9.546e-5,-1.878,442.6
15.957,1842.936,-1862.69,-49.406,1.132,0.229,1.089e-7,-0.009,1.609e-5,-2.085,441.9
16.007,1847.566,-1867.421,-49.449,0.151,0.344,1.096e-7,-0.004,-3.081e-6,-2.292,441.1
16.057,1852.198,-1872.156,-49.406,0.489,0.401,1.06e-7,0.003,-2.898e-6,-2.497,440.4
16.107,1856.831,-1876.886,-48.967,0.984,0.229,1.057e-7,0.009,6.029e-6,-2.702,439.6
16.157,1861.463,-1881.617,-48.442,2.94,0.023,1.06e-7,0.011,3.183e-4,-2.907,438.9
16.207,1866.089,-1886.345,-48.091,3.983,0.115,1.056e-7,-0.011,8.367e-5,-3.111,438.1
16.257,1870.705,-1891.063,-47.703,5.338,0.286,1.07e-7,-0.007,4.394e-5,-3.314,437.4
16.307,1875.315,-1895.774,-47.507,5.604,0.286,1.054e-7,-0.003,3.675e-5,-3.518,436.7
16.357,1879.915,-1900.472,-47.369,5.591,0.286,1.06e-7,0.003,3.392e-5,-3.719,435.9
16.407,1884.505,-1905.164,-47.448,4.285,0.172,1.065e-7,0.007,3.934e-5,-3.921,435.2
16.457,1889.085,-1909.846,-47.434,3.622,0.057,1.055e-7,0.009,6.24e-5,-4.122,434.5
16.507,1893.658,-1914.524,-47.425,2.989,0.005,1.055e-7,0.01,7.958e-4,-4.322,433.8
16.557,1898.228,-1919.196,-47.539,1.663,0.172,1.058e-7,-0.008,-2.279e-7,-4.522,433.1
16.607,1902.795,-1923.865,-47.526,1.083,0.229,1.071e-7,-0.005,-7.959e-6,-4.722,432.4
16.657,1907.362,-1928.53,-47.497,0.545,0.286,1.082e-7,-9.549e-4,-9.438e-6,-4.92,431.7
16.707,1911.926,-1933.196,-47.369,0.479,0.286,1.081e-7,0.004,-1.012e-5,-5.118,431.1
16.757,1916.486,-1937.861,-47.021,1.601,0.172,1.075e-7,0.008,-1.489e-6,-5.316,430.4
16.807,1921.047,-1942.523,-46.608,3.107,0.037,1.077e-7,-0.009,1.085e-4,-5.512,429.7
16.857,1925.6,-1947.178,-46.227,4.518,0.229,1.078e-7,-0.007,4.423e-5,-5.708,429
16.907,1930.148,-1951.827,-46.033,4.888,0.286,1.085e-7,-0.003,4.296e-5,-5.904,428.3
16.957,1934.685,-1956.467,-45.896,4.961,0.286,1.087e-7,0.002,4.48e-5,-6.099,427.6
17.007,1939.213,-1961.099,-45.879,4.357,0.229,1.079e-7,0.006,5.192e-5,-6.293,427
17.057,1943.734,-1965.722,-45.853,3.842,0.172,1.079e-7,0.008,6.497e-5,-6.488,426.3
17.107,1948.248,-1970.341,-45.971,2.559,0.02,1.081e-7,-0.009,3.183e-4,-6.68,425.6
17.157,1952.756,-1974.954,-46.132,1.089,0.229,1.079e-7,-0.008,2.962e-7,-6.873,425
17.207,1957.264,-1979.564,-46.093,0.728,0.286,1.066e-7,-0.004,-7.137e-6,-7.065,424.3
17.257,1961.768,-1984.173,-46.115,0.039,0.344,1.081e-7,6.366e-4,-1.05e-5,-7.258,423.6
17.307,1966.276,-1988.783,-45.961,0.141,0.344,1.077e-7,0.006,-9.51e-6,-7.449,423
17.357,1970.781,-1993.392,-45.728,0.673,0.286,1.069e-7,0.01,2.252e-7,-7.638,422.3
17.407,1975.285,-1998.002,-45.262,2.52,0.005,1.069e-7,0.012,0.001,-7.829,421.6
17.457,1979.783,-2002.605,-44.76,4.708,0.286,1.075e-7,-0.01,5.344e-5,-8.018,421
17.507,1984.275,-2007.201,-44.364,6.421,0.573,1.097e-7,-0.004,4.479e-5,-8.207,420.3
17.557,1988.757,-2011.785,-44.262,6.375,0.573,1.128e-7,0.004,4.475e-5,-8.396,419.7
17.607,1993.225,-2016.358,-44.301,5.515,0.458,1.106e-7,0.011,5.286e-5,-8.583,419
17.657,1997.684,-2020.922,-44.419,4.242,0.229,1.124e-7,0.015,7.25e-5,-8.77,418.4
17.707,2002.136,-2025.479,-44.554,2.992,0.057,1.13e-7,0.017,1.592e-4,-8.955,417.7
17.757,2006.581,-2030.03,-44.757,1.473,0.172,1.133e-7,-0.017,3.158e-5,-9.143,417.1
17.807,2011.024,-2034.58,-45.115,0.761,0.458,1.128e-7,-0.012,-3.548e-6,-9.328,416.4
17.857,2015.469,-2039.131,-45.197,1.594,0.63,1.132e-7,-0.005,-9.333e-6,-9.512,415.8
17.907,2019.915,-2043.681,-45.118,1.703,0.63,1.099e-7,0.003,-9.618e-6,-9.697,415.1
17.957,2024.367,-2048.238,-44.8,0.741,0.458,1.092e-7,0.01,-8.432e-6,-9.881,414.5
18.007,2028.816,-2052.795,-44.301,1.148,0.172,1.091e-7,0.015,1.881e-5,-10.062,413.9
18.057,2033.264,-2057.349,-43.74,3.494,0.172,1.094e-7,-0.015,8.973e-5,-10.246,413.2
18.107,2037.707,-2061.9,-43.261,5.587,0.516,1.094e-7,-0.011,5.171e-5,-10.428,412.6
18.157,2042.142,-2066.437,-43.028,6.358,0.63,1.081e-7,-0.004,5.015e-5,-10.61,412
18.207,2046.562,-2070.968,-42.972,6.122,0.573,1.105e-7,0.004,5.346e-5,-10.79,411.3
18.257,2050.974,-2075.486,-43.084,4.918,0.401,1.116e-7,0.01,6.121e-5,-10.97,410.7
18.307,2055.377,-2079.993,-43.222,3.661,0.229,1.108e-7,0.014,8.843e-5,-11.15,410.1
18.357,2059.774,-2084.495,-43.468,1.916,0.057,1.11e-7,-0.015,1.576e-4,-11.33,409.5
18.407,2064.163,-2088.996,-43.648,0.6,0.286,1.115e-7,-0.012,1.357e-5,-11.508,408.8
18.457,2068.556,-2093.494,-43.622,0.374,0.344,1.114e-7,-0.009,-3.126e-6,-11.686,408.2
18.507,2072.946,-2097.992,-43.56,0.289,0.344,1.104e-7,-0.005,-1.228e-5,-11.864,407.6
18.557,2077.336,-2102.487,-43.533,0.036,0.401,1.094e-7,-6.366e-4,-1.311e-5,-12.041,407
18.607,2081.726,-2106.985,-43.527,0.469,0.458,1.092e-7,0.005,-1.49e-5,-12.217,406.4
18.657,2086.115,-2111.483,-43.163,0.83,0.229,1.088e-7,0.009,-8.036e-8,-12.393,405.8
18.707,2090.505,-2115.981,-42.854,1.867,0.057,1.095e-7,0.011,7.299e-5,-12.57,405.3
18.757,2094.888,-2120.472,-42.543,2.969,0.115,1.094e-7,-0.01,8.551e-5,-12.744,404.7
18.807,2099.268,-2124.961,-42.198,4.314,0.344,1.101e-7,-0.007,5.36e-5,-12.919,404.1
18.857,2103.642,-2129.442,-41.903,5.466,0.573,1.087e-7,-0.002,4.954e-5,-13.092,403.5
18.907,2108.005,-2133.914,-41.877,5.131,0.516,1.102e-7,0.004,4.827e-5,-13.266,403
18.957,2112.359,-2138.376,-41.883,4.662,0.458,1.093e-7,0.009,5.644e-5,-13.439,402.4
19.007,2116.703,-2142.828,-41.982,3.714,0.286,1.094e-7,0.013,7.195e-5,-13.61,401.8
19.057,2121.043,-2147.277,-42.119,2.618,0.057,1.1e-7,0.015,1.592e-4,-13.783,401.2
19.107,2125.377,-2151.719,-42.375,1.007,0.229,1.099e-7,-0.014,1.811e-5,-13.954,400.7
19.157,2129.708,-2156.161,-42.497,0.128,0.401,1.094e-7,-0.011,-6.01e-6,-14.125,400.1
19.207,2134.039,-2160.604,-42.47,0.069,0.401,1.095e-7,-0.007,-1.244e-5,-14.294,399.6
19.257,2138.373,-2165.043,-42.49,0.492,0.516,1.1e-7,-0.002,-1.419e-5,-14.463,399
19.307,2142.703,-2169.485,-42.365,0.299,0.458,1.1e-7,0.003,-9.934e-6,-14.633,398.4
19.357,2147.037,-2173.927,-42.07,0.659,0.286,1.108e-7,0.007,1.083e-6,-14.802,397.9
19.407,2151.368,-2178.369,-41.765,1.69,0.115,1.105e-7,0.009,7.49e-5,-14.969,397.3
19.457,2155.699,-2182.808,-41.417,2.966,0.172,1.104e-7,-0.008,9.549e-5,-15.137,396.8
19.507,2160.023,-2187.241,-41.207,3.612,0.286,1.105e-7,-0.006,6.778e-5,-15.304,396.2
19.557,2164.337,-2191.67,-40.968,4.439,0.458,1.112e-7,-0.002,6.043e-5,-15.471,395.7
19.607,2168.648,-2196.089,-40.958,4.078,0.401,1.115e-7,0.002,6.288e-5,-15.637,395.1
19.657,2172.949,-2200.502,-40.951,3.734,0.344,1.111e-7,0.005,7.046e-5,-15.803,394.6
19.707,2177.244,-2204.905,-41.056,2.838,0.172,1.108e-7,0.008,1.044e-4,-15.966,394
19.757,2181.535,-2209.308,-41.093,2.329,0.057,1.111e-7,0.009,1.592e-4,-16.132,393.5
19.807,2185.82,-2213.704,-41.129,1.834,0.042,1.111e-7,-0.009,1.592e-4,-16.296,392.9
19.857,2190.105,-2218.097,-41.125,1.555,0.115,1.113e-7,-0.008,4.493e-5,-16.458,392.4
19.907,2194.383,-2222.49,-41.201,0.896,0.229,1.113e-7,-0.007,1.243e-6,-16.622,391.9
19.957,2198.661,-2226.877,-41.289,0.187,0.401,1.114e-7,-0.004,-4.829e-6,-16.784,391.3
20.007,2202.94,-2231.266,-41.171,0.404,0.344,1.113e-7,-4.775e-4,-1.037e-5,-16.946,390.8
20.057,2207.218,-2235.656,-41.138,0.21,0.344,1.112e-7,0.003,-1.403e-5,-17.108,390.3
20.107,2211.493,-2240.043,-40.945,0.728,0.286,1.113e-7,0.006,-6.474e-6,-17.268,389.7
20.157,2215.768,-2244.429,-40.696,1.529,0.115,1.113e-7,0.007,4.545e-5,-17.428,389.2
20.207,2220.043,-2248.816,-40.486,2.142,0.044,1.113e-7,-0.008,1.592e-4,-17.588,388.7
20.257,2224.311,-2253.196,-40.315,2.598,0.172,1.115e-7,-0.007,7.256e-5,-17.747,388.1
20.307,2228.573,-2257.572,-40.164,2.979,0.229,1.114e-7,-0.005,5.437e-5,-17.905,387.6
20.357,2232.835,-2261.942,-40.085,3.018,0.229,1.119e-7,-0.003,4.773e-5,-18.063,387.1
20.407,2237.087,-2266.306,-39.948,3.366,0.344,1.12e-7,-3.183e-4,4.429e-5,-18.222,386.6
20.457,2241.332,-2270.666,-39.941,3.068,0.286,1.114e-7,0.002,4.506e-5,-18.378,386.1
20.507,2245.574,-2275.02,-39.869,3.104,0.286,1.113e-7,0.005,4.665e-5,-18.535,385.5
20.557,2249.813,-2279.37,-39.931,2.49,0.172,1.113e-7,0.007,6.096e-5,-18.692,385
20.607,2254.042,-2283.714,-39.961,2.057,0.055,1.114e-7,0.007,9.86e-5,-18.848,384.5
20.657,2258.271,-2288.054,-40.072,1.23,0.115,1.114e-7,-0.007,-2.106e-7,-19.003,384
20.707,2262.497,-2292.395,-40.033,1.152,0.172,1.115e-7,-0.006,-1.787e-5,-19.158,383.5
20.757,2266.722,-2296.732,-40.007,1.001,0.172,1.116e-7,-0.004,-2.597e-5,-19.311,383
20.807,2270.945,-2301.066,-39.944,1.02,0.172,1.119e-7,-0.003,-3.47e-5,-19.466,382.5
20.857,2275.164,-2305.4,-39.859,1.132,0.172,1.12e-7,-0.002,-4.367e-5,-19.619,382
20.907,2279.38,-2309.731,-39.767,1.266,0.115,1.118e-7,-4.775e-4,-4.45e-5,-19.772,381.4
20.957,2283.596,-2314.062,-39.636,1.591,0.046,1.118e-7,1.592e-4,-4.154e-5,-19.923,380.9
21.007,2287.808,-2318.386,-39.57,1.588,0.043,1.118e-7,4.775e-4,-4.315e-5,-20.076,380.4
21.057,2292.021,-2322.71,-39.514,1.565,0.046,1.118e-7,9.549e-4,-4.985e-5,-20.227,379.9
21.107,2296.227,-2327.031,-39.367,1.962,0.054,1.118e-7,-7.958e-4,6.126e-5,-20.376,379.5
21.157,2300.43,-2331.348,-39.301,1.985,0.057,1.118e-7,-4.775e-4,5.847e-5,-20.528,379
21.207,2304.629,-2335.663,-39.131,2.497,0.172,1.117e-7,6.366e-4,5.855e-5,-20.677,378.5
21.257,2308.825,-2339.974,-39.049,2.612,0.229,1.115e-7,0.002,5.894e-5,-20.826,378.1
21.307,2313.018,-2344.278,-38.953,2.792,0.286,1.112e-7,0.004,5.86e-5,-20.974,377.6
21.357,2317.205,-2348.579,-38.986,2.385,0.172,1.11e-7,0.006,7.074e-5,-21.123,377.1
21.407,2321.385,-2352.877,-38.99,2.119,0.115,1.109e-7,0.007,8.504e-5,-21.271,376.7
21.457,2325.564,-2357.169,-39.045,1.627,0.019,1.109e-7,-0.007,1.592e-4,-21.419,376.2
21.507,2329.738,-2361.457,-39.075,1.27,0.115,1.109e-7,-0.007,-2.005e-6,-21.564,375.7
21.557,2333.911,-2365.745,-39.121,0.85,0.229,1.108e-7,-0.005,-1.73e-5,-21.712,375.3
21.607,2338.081,-2370.033,-39.104,0.686,0.286,1.11e-7,-0.004,-2.381e-5,-21.858,374.8
21.657,2342.251,-2374.318,-38.94,1.175,0.115,1.113e-7,-0.002,-3.958e-5,-22.002,374.4
21.707,2346.417,-2378.599,-38.927,0.994,0.172,1.111e-7,-0.001,-3.858e-5,-22.148,373.9
21.757,2350.584,-2382.881,-38.927,0.748,0.229,1.111e-7,4.775e-4,-3.958e-5,-22.292,373.5
21.807,2354.751,-2387.162,-38.934,0.466,0.344,1.113e-7,0.002,-4.374e-5,-22.436,373
21.857,2358.914,-2391.44,-38.802,0.761,0.229,1.112e-7,0.004,-4.324e-5,-22.578,372.6
21.907,2363.074,-2395.719,-38.734,0.791,0.229,1.113e-7,0.006,-5.329e-5,-22.722,372.1
21.957,2367.234,-2399.993,-38.556,1.306,0.057,1.111e-7,0.007,-7.315e-5,-22.864,371.7
22.007,2371.394,-2404.268,-38.33,2.06,0.115,1.11e-7,-0.007,3.699e-5,-23.006,371.2
22.057,2375.548,-2408.54,-38.094,2.9,0.401,1.11e-7,-0.005,4.81e-5,-23.147,370.8
22.107,2379.698,-2412.805,-37.966,3.241,0.458,1.114e-7,-0.002,4.919e-5,-23.289,370.3
22.157,2383.842,-2417.064,-37.789,3.842,0.63,1.118e-7,0.001,5.048e-5,-23.429,369.9
22.207,2387.979,-2421.319,-37.674,4.137,0.745,1.119e-7,0.006,5.227e-5,-23.568,369.5
22.257,2392.11,-2425.564,-37.723,3.675,0.63,1.114e-7,0.011,5.386e-5,-23.708,369
22.307,2396.23,-2429.803,-37.815,3.035,0.458,1.11e-7,0.014,5.994e-5,-23.847,368.6
22.357,2400.348,-2434.039,-37.963,2.172,0.172,1.11e-7,0.016,8.346e-5,-23.985,368.1
22.407,2404.462,-2438.268,-38.074,1.535,0.007,1.111e-7,-0.016,7.958e-4,-24.124,367.7
22.457,2408.573,-2442.497,-38.245,0.666,0.286,1.11e-7,-0.015,-2.198e-5,-24.261,367.3
22.507,2412.684,-2446.726,-38.432,0.223,0.516,1.111e-7,-0.013,-3.218e-5,-24.398,366.8
22.557,2416.795,-2450.951,-38.497,0.614,0.688,1.112e-7,-0.009,-3.532e-5,-24.534,366.4
22.607,2420.906,-2455.18,-38.471,0.653,0.688,1.111e-7,-0.005,-3.957e-5,-24.671,366
22.657,2425.016,-2459.409,-38.501,0.958,0.745,1.108e-7,-6.366e-4,-3.904e-5,-24.806,365.6
22.707,2429.131,-2463.642,-38.445,0.945,0.745,1.103e-7,0.004,-4.055e-5,-24.941,365.1
22.757,2433.245,-2467.874,-38.304,0.64,0.688,1.105e-7,0.008,-3.937e-5,-25.076,364.7
22.807,2437.362,-2472.106,-38.107,0.118,0.516,1.109e-7,0.012,-3.92e-5,-25.211,364.3
22.857,2441.48,-2476.342,-37.766,0.997,0.172,1.108e-7,0.014,-1.845e-5,-25.344,363.9
22.907,2445.594,-2480.574,-37.457,2.051,0.172,1.107e-7,-0.014,7.151e-5,-25.478,363.5
22.957,2449.705,-2484.803,-37.224,2.825,0.458,1.105e-7,-0.012,5.583e-5,-25.611,363
23.007,2453.809,-2489.026,-37.018,3.52,0.688,1.108e-7,-0.009,5.091e-5,-25.742,362.6
23.057,2457.91,-2493.245,-36.873,3.963,0.802,1.112e-7,-0.004,5.012e-5,-25.875,362.2
23.107,2462.001,-2497.457,-36.844,3.891,0.802,1.112e-7,4.775e-4,5.101e-5,-26.007,361.8
23.157,2466.089,-2501.66,-36.9,3.428,0.688,1.112e-7,0.005,5.531e-5,-26.136,361.4
23.207,2470.167,-2505.86,-36.939,3.051,0.573,1.112e-7,0.008,5.844e-5,-26.268,361
23.257,2474.242,-2510.052,-37.073,2.267,0.286,1.112e-7,0.01,6.957e-5,-26.397,360.6
23.307,2478.314,-2514.242,-37.162,1.716,0.115,1.112e-7,0.012,1.028e-4,-26.527,360.2
23.357,2482.379,-2518.425,-37.218,1.322,0.016,1.112e-7,-0.012,3.183e-4,-26.657,359.8
23.407,2486.444,-2522.612,-37.244,1.07,0.115,1.112e-7,-0.011,-1.414e-6,-26.784,359.3
23.457,2490.509,-2526.791,-37.201,1.106,0.115,1.113e-7,-0.011,-2.414e-5,-26.912,358.9
23.507,2494.567,-2530.971,-37.238,0.827,0.229,1.113e-7,-0.01,-4.163e-5,-27.04,358.5
23.557,2498.629,-2535.151,-37.326,0.341,0.401,1.11e-7,-0.009,-4.348e-5,-27.168,358.1
23.607,2502.687,-2539.327,-37.343,0.144,0.458,1.111e-7,-0.007,-4.326e-5,-27.294,357.7
23.657,2506.745,-2543.507,-37.346,0.03,0.516,1.11e-7,-0.004,-4.566e-5,-27.42,357.3
23.707,2510.804,-2547.684,-37.303,0.023,0.516,1.11e-7,-0.001,-4.789e-5,-27.546,357
23.757,2514.859,-2551.864,-37.218,0.157,0.458,1.111e-7,9.549e-4,-4.658e-5,-27.672,356.6
23.807,2518.917,-2556.04,-37.11,0.394,0.344,1.114e-7,0.003,-4.566e-5,-27.796,356.2
23.857,2522.976,-2560.217,-36.946,0.837,0.172,1.115e-7,0.004,-4.173e-5,-27.92,355.8
23.907,2527.031,-2564.393,-36.811,1.184,0.056,1.116e-7,0.005,-2.211e-5,-28.044,355.4
23.957,2531.086,-2568.566,-36.706,1.407,0.036,1.116e-7,-0.005,8.884e-5,-28.169,355
24.007,2535.135,-2572.736,-36.585,1.719,0.172,1.116e-7,-0.005,6.124e-5,-28.291,354.6
24.057,2539.183,-2576.906,-36.421,2.211,0.344,1.116e-7,-0.003,5.828e-5,-28.413,354.2
24.107,2543.228,-2581.07,-36.306,2.51,0.458,1.116e-7,-0.001,5.763e-5,-28.536,353.9
24.157,2547.267,-2585.23,-36.24,2.612,0.516,1.119e-7,0.001,5.798e-5,-28.656,353.5
24.207,2551.302,-2589.383,-36.22,2.526,0.516,1.119e-7,0.004,5.787e-5,-28.779,353.1
24.257,2555.331,-2593.533,-36.243,2.28,0.401,1.12e-7,0.006,5.704e-5,-28.899,352.8
24.307,2559.357,-2597.68,-36.276,1.991,0.286,1.118e-7,0.007,6.08e-5,-29.02,352.4
24.357,2563.379,-2601.824,-36.302,1.749,0.229,1.118e-7,0.008,6.201e-5,-29.139,352.1
24.407,2567.398,-2605.965,-36.286,1.686,0.172,1.119e-7,0.009,5.446e-5,-29.258,351.7
24.457,2571.417,-2610.102,-36.365,1.247,0.003,1.118e-7,-0.01,1.592e-4,-29.378,351.4
24.507,2575.43,-2614.239,-36.47,0.732,0.229,1.118e-7,-0.009,-4.493e-5,-29.495,351
24.557,2579.442,-2618.373,-36.48,0.584,0.286,1.118e-7,-0.008,-4.962e-5,-29.614,350.6
24.607,2583.455,-2622.507,-36.444,0.594,0.286,1.118e-7,-0.007,-5.704e-5,-29.731,350.3
24.657,2587.467,-2626.637,-36.398,0.643,0.286,1.117e-7,-0.006,-6.24e-5,-29.848,349.9
24.707,2591.476,-2630.768,-36.365,0.643,0.286,1.116e-7,-0.004,-6.435e-5,-29.965,349.6
24.757,2595.482,-2634.898,-36.362,0.528,0.286,1.116e-7,-0.003,-6.333e-5,-30.08,349.3
24.807,2599.491,-2639.026,-36.299,0.623,0.286,1.116e-7,-0.002,-6.31e-5,-30.197,348.9
24.857,2603.497,-2643.156,-36.217,0.784,0.172,1.115e-7,-9.549e-4,-6.417e-5,-30.312,348.6
24.907,2607.503,-2647.28,-36.201,0.712,0.229,1.116e-7,-4.116e-5,-6.377e-5,-30.426,348.2
24.957,2611.506,-2651.407,-36.148,0.764,0.229,1.115e-7,7.958e-4,-6.419e-5,-30.541,347.9
25.007,2615.509,-2655.531,-36.07,0.909,0.115,1.115e-7,0.002,-6.618e-5,-30.654,347.5
25.057,2619.508,-2659.652,-35.978,1.102,0.041,1.115e-7,0.002,-7.679e-5,-30.768,347.2
25.107,2623.507,-2663.773,-35.912,1.201,0.01,1.115e-7,-0.002,-1.081e-5,-30.881,346.9
25.157,2627.503,-2667.89,-35.899,1.115,0.024,1.115e-7,0.002,-1.079e-4,-30.993,346.5
25.207,2631.496,-2672.008,-35.837,1.198,0.021,1.115e-7,-0.002,-1.074e-6,-31.106,346.2
25.257,2635.489,-2676.122,-35.794,1.217,0.036,1.115e-7,-0.002,2.198e-5,-31.218,345.9
25.307,2639.478,-2680.236,-35.686,1.49,0.172,1.116e-7,-0.001,5.039e-5,-31.328,345.5
25.357,2643.465,-2684.344,-35.61,1.634,0.229,1.116e-7,-6.366e-4,5.322e-5,-31.439,345.2
25.407,2647.451,-2688.451,-35.486,1.972,0.401,1.114e-7,6.366e-4,5.293e-5,-31.549,344.9
25.457,2651.43,-2692.556,-35.43,2.051,0.458,1.114e-7,0.002,5.074e-5,-31.659,344.5
25.507,2655.407,-2696.657,-35.384,2.1,0.516,1.113e-7,0.004,5.032e-5,-31.769,344.2
25.557,2659.38,-2700.751,-35.41,1.877,0.401,1.113e-7,0.006,4.896e-5,-31.877,343.9
25.607,2663.35,-2704.846,-35.394,1.831,0.344,1.112e-7,0.007,4.73e-5,-31.986,343.6
25.657,2667.316,-2708.934,-35.427,1.594,0.229,1.113e-7,0.008,4.159e-5,-32.094,343.3
25.707,2671.283,-2713.022,-35.446,1.414,0.172,1.113e-7,0.009,2.959e-5,-32.201,342.9
25.757,2675.243,-2717.106,-35.427,1.388,0.172,1.114e-7,0.01,2.198e-5,-32.309,342.6
25.807,2679.203,-2721.188,-35.466,1.145,0.025,1.114e-7,0.01,-1.592e-4,-32.415,342.3
25.857,2683.159,-2725.269,-35.476,1.024,0.04,1.114e-7,-0.01,-1.592e-4,-32.521,342
25.907,2687.113,-2729.347,-35.577,0.584,0.286,1.113e-7,-0.009,-8.403e-5,-32.627,341.7
25.957,2691.066,-2733.425,-35.643,0.279,0.458,1.115e-7,-0.008,-7.555e-5,-32.733,341.3
26.007,2695.02,-2737.5,-35.6,0.335,0.401,1.116e-7,-0.007,-7.574e-5,-32.838,341
26.057,2698.973,-2741.578,-35.656,0.066,0.573,1.116e-7,-0.005,-7.34e-5,-32.942,340.7
26.107,2702.927,-2745.653,-35.574,0.233,0.458,1.115e-7,-0.003,-7.366e-5,-33.047,340.4
26.157,2706.877,-2749.731,-35.499,0.374,0.401,1.114e-7,-0.002,-7.214e-5,-33.149,340.1
26.207,2710.83,-2753.806,-35.404,0.584,0.286,1.115e-7,-4.775e-4,-7.265e-5,-33.252,339.8
26.257,2714.78,-2757.881,-35.335,0.702,0.229,1.115e-7,3.183e-4,-7.119e-5,-33.356,339.5
26.307,2718.727,-2761.952,-35.292,0.738,0.172,1.114e-7,9.549e-4,-7.202e-5,-33.457,339.2
26.357,2722.677,-2766.024,-35.213,0.886,0.115,1.114e-7,0.001,-7.48e-5,-33.56,338.9
26.407,2726.621,-2770.095,-35.115,1.102,0.037,1.114e-7,-0.001,5.835e-5,-33.66,338.6
26.457,2730.568,-2774.163,-35.026,1.296,0.172,1.114e-7,-0.001,6.726e-5,-33.761,338.3
26.507,2734.508,-2778.228,-34.957,1.417,0.229,1.113e-7,-4.775e-4,6.807e-5,-33.862,338
26.557,2738.448,-2782.293,-34.895,1.526,0.286,1.113e-7,3.183e-4,6.799e-5,-33.963,337.7
26.607,2742.382,-2786.355,-34.849,1.575,0.344,1.113e-7,0.001,6.648e-5,-34.062,337.4
26.657,2746.316,-2790.413,-34.813,1.598,0.344,1.112e-7,0.002,6.61e-5,-34.161,337.1
26.707,2750.249,-2794.469,-34.836,1.427,0.286,1.112e-7,0.003,6.481e-5,-34.26,336.8
26.757,2754.177,-2798.52,-34.852,1.276,0.172,1.112e-7,0.004,6.484e-5,-34.357,336.5
26.807,2758.1,-2802.572,-34.797,1.371,0.229,1.112e-7,0.005,6.363e-5,-34.456,336.2
26.857,2762.024,-2806.621,-34.816,1.22,0.172,1.112e-7,0.005,5.835e-5,-34.553,335.9
26.907,2765.948,-2810.666,-34.81,1.148,0.115,1.112e-7,0.006,5.029e-5,-34.65,335.6
26.957,2769.865,-2814.711,-34.862,0.889,0.052,1.112e-7,-0.006,-1.093e-4,-34.746,335.3
27.007,2773.783,-2818.753,-34.879,0.761,0.115,1.112e-7,-0.006,-8.693e-5,-34.843,335.1
27.057,2777.7,-2822.795,-34.869,0.705,0.172,1.112e-7,-0.005,-8.598e-5,-34.938,334.8
27.107,2781.614,-2826.834,-34.76,0.965,0.004,1.112e-7,0.005,-7.958e-4,-35.034,334.5
27.157,2785.528,-2830.873,-34.724,1.004,0.033,1.112e-7,0.005,-4.738e-5,-35.127,334.2
27.207,2789.439,-2834.911,-34.705,0.974,0.017,1.112e-7,0.005,-1.592e-4,-35.223,333.9
27.257,2793.35,-2838.947,-34.646,1.086,0.115,1.112e-7,0.005,2.734e-5,-35.316,333.6
27.307,2797.257,-2842.979,-34.58,1.207,0.172,1.112e-7,0.005,4.935e-5,-35.41,333.4
27.357,2801.161,-2847.011,-34.573,1.148,0.172,1.112e-7,0.006,4.439e-5,-35.502,333.1
27.407,2805.066,-2851.04,-34.59,1.027,0.057,1.112e-7,0.006,5.362e-6,-35.595,332.8
27.457,2808.967,-2855.066,-34.564,1.03,0.057,1.112e-7,0.006,2.042e-5,-35.687,332.5
27.507,2812.867,-2859.094,-34.551,0.994,0.045,1.112e-7,0.007,4.749e-6,-35.779,332.3
27.557,2816.765,-2863.117,-34.6,0.774,0.115,1.112e-7,-0.006,-1.102e-4,-35.871,332
27.607,2820.659,-2867.139,-34.514,0.958,0.023,1.112e-7,0.006,1.092e-5,-35.961,331.7
27.657,2824.557,-2871.161,-34.462,1.037,0.057,1.112e-7,0.006,7.714e-5,-36.051,331.5
27.707,2828.448,-2875.18,-34.386,1.198,0.229,1.112e-7,0.007,8.715e-5,-36.141,331.2
27.757,2832.339,-2879.196,-34.416,1.04,0.115,1.113e-7,0.007,9.621e-5,-36.231,330.9
27.807,2836.227,-2883.212,-34.4,1.017,0.057,1.113e-7,0.007,1.067e-4,-36.321,330.7
27.857,2840.115,-2887.224,-34.416,0.902,0.01,1.113e-7,-0.007,1.278e-4,-36.409,330.4
27.907,2844.003,-2891.237,-34.478,0.659,0.172,1.113e-7,-0.007,-7.296e-5,-36.497,330.1
27.957,2847.884,-2895.249,-34.465,0.633,0.229,1.113e-7,-0.007,-7.361e-5,-36.585,329.9
28.007,2851.768,-2899.259,-34.531,0.384,0.401,1.113e-7,-0.006,-7.729e-5,-36.672,329.6
28.057,2855.65,-2903.268,-34.554,0.256,0.516,1.112e-7,-0.005,-7.951e-5,-36.758,329.4
28.107,2859.534,-2907.277,-34.511,0.312,0.458,1.112e-7,-0.004,-8.066e-5,-36.846,329.1
28.157,2863.415,-2911.283,-34.4,0.551,0.286,1.112e-7,-0.003,-8.033e-5,-36.931,328.9
28.207,2867.293,-2915.292,-34.413,0.449,0.344,1.111e-7,-0.002,-8.101e-5,-37.017,328.6
28.257,2871.175,-2919.298,-34.452,0.269,0.516,1.111e-7,-0.001,-8.107e-5,-37.102,328.4
28.307,2875.052,-2923.304,-34.446,0.22,0.516,1.111e-7,-6.357e-5,-8.087e-5,-37.187,328.1
28.357,2878.93,-2927.31,-34.446,0.148,0.573,1.111e-7,0.001,-8.085e-5,-37.271,327.9
28.407,2882.808,-2931.316,-34.36,0.308,0.458,1.112e-7,0.002,-8.141e-5,-37.356,327.7
28.457,2886.686,-2935.318,-34.285,0.44,0.344,1.111e-7,0.003,-7.947e-5,-37.439,327.4
28.507,2890.564,-2939.324,-34.18,0.656,0.172,1.111e-7,0.004,-6.903e-5,-37.521,327.2
28.557,2894.439,-2943.327,-34.081,0.86,0.04,1.111e-7,-0.004,1.592e-4,-37.604,327
28.607,2898.314,-2947.326,-33.993,1.037,0.229,1.111e-7,-0.004,1.061e-4,-37.687,326.7
28.657,2902.185,-2951.329,-33.878,1.289,0.458,1.111e-7,-0.003,9.931e-5,-37.768,326.5
28.707,2906.056,-2955.325,-33.809,1.417,0.573,1.111e-7,-0.002,9.788e-5,-37.849,326.3
28.757,2909.925,-2959.321,-33.684,1.709,0.859,1.112e-7,-4.775e-4,9.707e-5,-37.93,326
28.807,2913.789,-2963.31,-33.675,1.677,0.802,1.112e-7,0.001,9.724e-5,-38.011,325.8
28.857,2917.651,-2967.3,-33.665,1.634,0.802,1.112e-7,0.003,9.809e-5,-38.092,325.6
28.907,2921.509,-2971.286,-33.652,1.608,0.802,1.112e-7,0.004,9.936e-5,-38.171,325.4
28.957,2925.364,-2975.269,-33.615,1.647,0.859,1.112e-7,0.006,9.955e-5,-38.25,325.1
29.007,2929.216,-2979.252,-33.593,1.65,0.859,1.112e-7,0.008,9.933e-5,-38.33,324.9
29.057,2933.068,-2983.228,-33.648,1.427,0.63,1.113e-7,0.009,9.844e-5,-38.407,324.7
29.107,2936.913,-2987.205,-33.642,1.391,0.63,1.113e-7,0.01,9.837e-5,-38.484,324.5
29.157,2940.758,-2991.178,-33.671,1.253,0.516,1.113e-7,0.011,9.771e-5,-38.564,324.3
29.207,2944.6,-2995.148,-33.734,1.02,0.286,1.112e-7,0.012,9.304e-5,-38.639,324
29.257,2948.442,-2999.114,-33.714,1.027,0.286,1.112e-7,0.012,9.589e-5,-38.717,323.8
29.307,2952.28,-3003.084,-33.763,0.853,0.115,1.112e-7,0.013,8.259e-5,-38.792,323.6
29.357,2956.119,-3007.047,-33.743,0.86,0.115,1.112e-7,0.013,9.213e-5,-38.868,323.4
29.407,2959.954,-3011.014,-33.776,0.728,0.022,1.112e-7,-0.013,-1.592e-4,-38.943,323.2
29.457,2963.786,-3014.974,-33.753,0.745,0.004,1.112e-7,-0.013,-3.183e-4,-39.019,323
29.507,2967.621,-3018.937,-33.74,0.738,0.014,1.112e-7,-0.013,-1.468e-4,-39.093,322.8
29.557,2971.453,-3022.897,-33.76,0.65,0.115,1.112e-7,-0.013,-1.15e-4,-39.168,322.5
29.607,2975.282,-3026.857,-33.74,0.65,0.115,1.112e-7,-0.013,-1.144e-4,-39.242,322.3
29.657,2979.111,-3030.814,-33.776,0.528,0.229,1.112e-7,-0.012,-1.137e-4,-39.314,322.1
29.707,2982.94,-3034.77,-33.839,0.338,0.458,1.112e-7,-0.012,-1.141e-4,-39.388,321.9
29.757,2986.768,-3038.727,-33.904,0.144,0.688,1.112e-7,-0.011,-1.146e-4,-39.46,321.7
29.807,2990.597,-3042.684,-33.871,0.194,0.63,1.112e-7,-0.01,-1.168e-4,-39.532,321.5
29.857,2994.423,-3046.64,-33.878,0.135,0.688,1.112e-7,-0.009,-1.172e-4,-39.604,321.3
29.907,2998.251,-3050.594,-33.829,0.21,0.63,1.111e-7,-0.008,-1.187e-4,-39.674,321.1
29.957,3002.077,-3054.551,-33.802,0.23,0.63,1.111e-7,-0.007,-1.197e-4,-39.746,320.9
30.007,3005.902,-3058.504,-33.789,0.223,0.63,1.111e-7,-0.006,-1.21e-4,-39.816,320.7
30.057,3009.728,-3062.461,-33.757,0.249,0.573,1.111e-7,-0.005,-1.22e-4,-39.885,320.5
30.107,3013.553,-3066.414,-33.698,0.348,0.458,1.111e-7,-0.004,-1.234e-4,-39.955,320.3
30.157,3017.379,-3070.367,-33.593,0.535,0.229,1.111e-7,-0.003,-1.301e-4,-40.023,320.1
30.207,3021.201,-3074.321,-33.553,0.584,0.172,1.111e-7,-0.003,-1.369e-4,-40.092,319.9
30.257,3025.023,-3078.271,-33.53,0.591,0.172,1.111e-7,-0.003,-1.405e-4,-40.16,319.7
30.307,3028.845,-3082.221,-33.56,0.479,0.286,1.111e-7,-0.003,-1.335e-4,-40.229,319.5
30.357,3032.664,-3086.171,-33.556,0.436,0.344,1.111e-7,-0.002,-1.329e-4,-40.295,319.4
30.407,3036.486,-3090.121,-33.504,0.509,0.229,1.111e-7,-0.002,-1.363e-4,-40.364,319.2
30.457,3040.305,-3094.068,-33.428,0.633,0.057,1.111e-7,-0.001,-1.592e-4,-40.43,319
30.507,3044.121,-3098.015,-33.36,0.748,0.115,1.111e-7,0.001,1.126e-4,-40.495,318.8
30.557,3047.94,-3101.962,-33.314,0.807,0.229,1.111e-7,0.002,1.217e-4,-40.562,318.6
30.607,3051.752,-3105.906,-33.294,0.804,0.229,1.111e-7,0.002,1.224e-4,-40.626,318.4
30.657,3055.568,-3109.849,-33.232,0.906,0.344,1.111e-7,0.002,1.285e-4,-40.691,318.2
30.707,3059.377,-3113.793,-33.205,0.922,0.401,1.111e-7,0.003,1.292e-4,-40.756,318.1
30.757,3063.189,-3117.73,-33.136,1.033,0.573,1.111e-7,0.004,1.326e-4,-40.819,317.9
30.807,3066.998,-3121.67,-33.041,1.207,0.802,1.111e-7,0.004,1.36e-4,-40.884,317.7
30.857,3070.804,-3125.604,-32.923,1.444,1.146,1.111e-7,0.006,1.385e-4,-40.947,317.5
30.907,3074.606,-3129.537,-32.904,1.44,1.146,1.111e-7,0.007,1.386e-4,-41.01,317.3
30.957,3078.409,-3133.468,-32.9,1.407,1.146,1.111e-7,0.009,1.385e-4,-41.071,317.2
31.007,3082.205,-3137.398,-32.904,1.358,1.089,1.111e-7,0.01,1.383e-4,-41.134,317
31.057,3086.001,-3141.322,-32.923,1.273,0.974,1.111e-7,0.011,1.371e-4,-41.195,316.8
31.107,3089.797,-3145.246,-32.972,1.132,0.802,1.111e-7,0.012,1.336e-4,-41.256,316.6
31.157,3093.586,-3149.17,-33.002,1.03,0.63,1.111e-7,0.013,1.298e-4,-41.316,316.5
31.207,3097.379,-3153.091,-32.94,1.125,0.802,1.111e-7,0.014,1.367e-4,-41.377,316.3
31.257,3101.165,-3157.008,-32.976,1.017,0.63,1.111e-7,0.015,1.32e-4,-41.436,316.1
31.307,3104.951,-3160.922,-32.995,0.945,0.573,1.111e-7,0.016,1.274e-4,-41.496,316
31.357,3108.737,-3164.839,-32.972,0.961,0.573,1.111e-7,0.016,1.311e-4,-41.555,315.8
31.407,3112.52,-3168.75,-32.999,0.879,0.458,1.111e-7,0.017,1.231e-4,-41.613,315.6
31.457,3116.299,-3172.664,-33.068,0.715,0.172,1.111e-7,0.017,5.922e-5,-41.672,315.5
31.507,3120.079,-3176.572,-33.156,0.512,0.172,1.111e-7,-0.017,-3.183e-4,-41.73,315.3
31.557,3123.858,-3180.482,-33.163,0.476,0.229,1.111e-7,-0.017,-3.183e-4,-41.787,315.1
31.607,3127.638,-3184.39,-33.182,0.42,0.344,1.111e-7,-0.017,-1.592e-4,-41.843,315
31.657,3131.414,-3188.297,-33.166,0.433,0.344,1.111e-7,-0.016,-1.592e-4,-41.901,314.8
31.707,3135.19,-3192.205,-33.153,0.436,0.344,1.111e-7,-0.016,-1.592e-4,-41.957,314.7
31.757,3138.967,-3196.112,-33.176,0.371,0.458,1.111e-7,-0.015,-1.592e-4,-42.012,314.5
31.807,3142.74,-3200.016,-33.215,0.279,0.63,1.111e-7,-0.015,-1.592e-4,-42.068,314.3
31.857,3146.516,-3203.921,-33.199,0.289,0.63,1.111e-7,-0.014,-1.592e-4,-42.122,314.2
31.907,3150.289,-3207.828,-33.212,0.246,0.688,1.111e-7,-0.014,-1.592e-4,-42.176,314
31.957,3154.062,-3211.732,-33.199,0.246,0.688,1.111e-7,-0.013,-1.592e-4,-42.23,313.9
32.007,3157.835,-3215.633,-33.212,0.2,0.802,1.111e-7,-0.012,-1.592e-4,-42.284,313.7
32.057,3161.608,-3219.537,-33.232,0.148,0.917,1.111e-7,-0.011,-1.592e-4,-42.338,313.6
32.107,3165.381,-3223.442,-33.235,0.121,0.974,1.111e-7,-0.01,-1.592e-4,-42.39,313.4
32.157,3169.154,-3227.346,-33.225,0.115,0.974,1.111e-7,-0.01,-1.592e-4,-42.443,313.3
32.207,3172.927,-3231.247,-33.235,0.079,1.031,1.111e-7,-0.009,-1.592e-4,-42.495,313.1
32.257,3176.696,-3235.151,-33.235,0.052,1.089,1.111e-7,-0.007,-1.592e-4,-42.545,313
32.307,3180.469,-3239.052,-33.192,0.102,1.031,1.111e-7,-0.007,-1.592e-4,-42.597,312.8
32.357,3184.242,-3242.956,-33.173,0.108,1.031,1.111e-7,-0.006,-1.592e-4,-42.648,312.7
32.407,3188.012,-3246.857,-33.114,0.18,0.859,1.111e-7,-0.005,-1.592e-4,-42.698,312.6
32.457,3191.781,-3250.758,-33.009,0.325,0.516,1.111e-7,-0.004,-1.592e-4,-42.749,312.4
32.507,3195.554,-3254.659,-32.982,0.341,0.458,1.111e-7,-0.004,-1.592e-4,-42.797,312.3
32.557,3199.324,-3258.56,-32.966,0.341,0.458,1.111e-7,-0.003,-1.592e-4,-42.846,312.1
32.607,3203.094,-3262.461,-32.894,0.43,0.229,1.111e-7,-0.003,-3.183e-4,-42.894,312
32.657,3206.86,-3266.362,-32.805,0.558,0.057,1.111e-7,0.003,6.918e-5,-42.943,311.9
32.707,3210.627,-3270.259,-32.776,0.574,0.115,1.111e-7,0.003,1.321e-4,-42.99,311.7
32.757,3214.393,-3274.157,-32.733,0.62,0.286,1.111e-7,0.003,1.592e-4,-43.038,311.6
32.807,3218.159,-3278.054,-32.69,0.663,0.401,1.111e-7,0.004,1.592e-4,-43.085,311.5
32.857,3221.923,-3281.949,-32.579,0.823,0.802,1.111e-7,0.004,1.592e-4,-43.132,311.3
32.907,3225.686,-3285.843,-32.556,0.837,0.859,1.111e-7,0.005,1.592e-4,-43.177,311.2
32.957,3229.449,-3289.734,-32.536,0.843,0.917,1.111e-7,0.005,1.592e-4,-43.224,311.1
33.007,3233.209,-3293.625,-32.503,0.873,0.974,1.111e-7,0.006,1.592e-4,-43.269,310.9
33.057,3236.965,-3297.516,-32.428,0.971,1.261,1.111e-7,0.007,1.592e-4,-43.314,310.8
33.107,3240.722,-3301.401,-32.421,0.958,1.261,1.111e-7,0.008,1.592e-4,-43.359,310.7
33.157,3244.475,-3305.289,-32.385,0.991,1.375,1.111e-7,0.009,1.592e-4,-43.402,310.6
33.207,3248.228,-3309.173,-32.405,0.935,1.261,1.111e-7,0.01,1.592e-4,-43.445,310.4
33.257,3251.982,-3313.054,-32.343,1.014,1.49,1.111e-7,0.011,1.592e-4,-43.488,310.3
33.307,3255.728,-3316.936,-32.323,1.02,1.547,1.111e-7,0.012,1.592e-4,-43.532,310.2
33.357,3259.478,-3320.814,-32.32,1.004,1.547,1.111e-7,0.013,1.592e-4,-43.575,310.1
